fsq_id,name,city,latitude,longitude,address,categories,cluster,parent,llama-3.3-70b-versatile_category,llama-3.3-70b-versatile_tags,llama-3.3-70b-versatile_match_score,egyptian price,foreigner price,website,tags,place_type,Beach & Relaxation,Cultural & Historical,Entertainment & Activities,Food & Gastronomy,Nature & Adventure,Nightlife & Festive,Religious,Shopping,Sports & Physical Activities,Wellness & Spa,day_time,country
4ef0642261afc4dca7518ed4,Al Tahra Palace (قصر الطاهرة),Cairo,30.09736266,31.30881429,"Al Tahra Sq, Al Zaitoun, القاهرة","['Palace', 'Monument']",-2,,Historical & Cultural Site,['Cultural & Historical'],90,60.0,220.0,https://www.presidency.eg/en/%D8%A7%D9%84%D9%82%D8%B5%D9%88%D8%B1-%D8%A7%D9%84%D8%B1%D8%A6%D8%A7%D8%B3%D9%8A%D8%A9/%D9%82%D8%B5%D8%B1-%D8%A7%D9%84%D8%B7%D8%A7%D9%87%D8%B1%D8%A9/,['Cultural & Historical'],standalone,0,1,0,0,0,0,0,0,0,0,morning,Egypt
4f6d8814e4b0a235d6b78856,6th of October Panorama (بانوراما حرب اكتوبر),Cairo,30.074452,31.30546757,"Salah Salem Road (El Obour Bldgs.), مصر الجديدة, القاهرة","['Museum', 'Historic and Protected Site']",-2,,Historical & Cultural Site,['Cultural & Historical'],80,200.0,500.0,,['Cultural & Historical'],standalone,0,1,0,0,0,0,0,0,0,0,morning,Egypt
51711c2ae4b04f3410d1ad82,Child Center of Civilization & Creativity (مركز الطفل للحضارة والابداع),Cairo,30.10129315,31.33425673,"34 Abobakr El Sediq St, مصر الجديدة, القاهرة","['History Museum', 'Science Museum']",-2,,Entertainment & Activities,"['Cultural & Historical', 'Entertainment & Activities']",40,100.0,200.0,,"['Cultural & Historical', 'Entertainment & Activities']",standalone,0,1,1,0,0,0,0,0,0,0,afternoon,Egypt
57a1c9d3498e1d3de3051f3f,Egyptian Air Force Museum (متحف القوات الجوية المصرية),Cairo,30.097305,31.352191,"Almaza Military Airport, ألماظة, القاهرة",['Museum'],-2,,Historical & Cultural Site,['Cultural & Historical'],70,30.0,60.0,,['Cultural & Historical'],standalone,0,1,0,0,0,0,0,0,0,0,morning,Egypt
4e5baceee4cd875e8eca83cd,Baron Empain Palace (قصر البارون),Cairo,30.08704581,31.32982843,"El Oruba St, القاهرة, القاهرة","['Historic and Protected Site', 'Castle']",-2,,Historical & Cultural Site,['Cultural & Historical'],85,60.0,220.0,https://egymonuments.com/details/BaronEmpainPalace,['Cultural & Historical'],standalone,0,1,0,0,0,0,0,0,0,0,morning,Egypt
5541e46f498e08a6e9bb0ca4,Mosque & Khanqah of Al Nasir Faraj Ibn Barquq (مسجد و خنقاة السلطان الناصر فرج بن برقوق),Cairo,30.04877696,31.27951551,"Gabanet El Mamalik Al Shamaliya (City of the Dead), Manshīyat Nāşir, القاهرة",['Historic and Protected Site'],-2,,Religious Site,"['Religious', 'Cultural & Historical']",80,10.0,100.0,,"['Cultural & Historical', 'Religious']",standalone,0,1,0,0,0,0,1,0,0,0,afternoon,Egypt
527e19d611d2237b7f750ef8,Mosque & Mausoleum of Prince Korkomaz (مسجد و قبة الأمير الكبير قرقماس),Cairo,30.05219388,31.27777576,"Gabanet El Mamalik (City of Dead), Manshīyat Nāşir, القاهرة","['Historic and Protected Site', 'Mosque']",-2,,Religious Site,"['Religious', 'Cultural & Historical']",80,10.0,100.0,,"['Cultural & Historical', 'Religious']",standalone,0,1,0,0,0,0,1,0,0,0,afternoon,Egypt
4b853e48f964a520845231e3,CityStars (سيتي ستارز),Cairo,30.07340203,31.34632552,"Omar Ibn El Khattab St., مصر الجديدة, القاهرة",['Shopping Mall'],-2,parent,Shopping & Commercial,"['Shopping', 'Entertainment & Activities']",90,0.0,0.0,,"['Entertainment & Activities', 'Shopping']",parent,0,0,1,0,0,0,0,1,0,0,night,Egypt
54ddb399498ea46b7f6f805e,Sultana Malak Palace (قصر السلطانه ملك),Cairo,30.08963464,31.32896193,"El Orouba St, مصر الجديدة, القاهرة",['Historic and Protected Site'],-2,,Historical & Cultural Site,['Cultural & Historical'],85,60.0,220.0,,['Cultural & Historical'],standalone,0,1,0,0,0,0,0,0,0,0,morning,Egypt
64f46d73b45d2024374aa739,Cafelluca boat (???? ???????? ???????),Cairo,30.059163,31.217168,"الجبلاية, القاهرة, القاهرة",['Boat Launch'],-2,,Entertainment & Activities,['Entertainment & Activities'],70,500.0,500.0,https://cafelluca.com/,['Entertainment & Activities'],standalone,0,0,1,0,0,0,0,0,0,0,afternoon,Egypt
50d2add1183ff76cdd9b6b64,Prince Said Halim Pacha Palace (قصر الأمير سعيد حليم باشا),Cairo,30.04900854,31.23727441,"Shampolion St. (Mahmoud Bassiouny St.), Downtown, Cairo, Muḩāfaz̧at al Qāhirah, القاهرة","['Palace', 'Historic and Protected Site']",-2,,Historical & Cultural Site,['Cultural & Historical'],80,60.0,220.0,,['Cultural & Historical'],standalone,0,1,0,0,0,0,0,0,0,0,morning,Egypt
531f4dca498e3f0bb2ded549,Sha'ar Hashamayim Synagogue (معبد شعار هاشاميام لليهود الأرثوذكس),Cairo,30.052117,31.243833,"Adly St. (Off Mohamed Farid St.), وسط البلد, القاهرة","['Synagogue', 'Historic and Protected Site']",-2,,Religious Site,['Religious'],60,10.0,100.0,,['Religious'],standalone,0,0,0,0,0,0,1,0,0,0,afternoon,Egypt
4c3fbcebaf052d7f6cdd7a79,Bianki Beach (شاطئ بيانكي),Alexandria,31.12450227,29.77403,"Agami, العجمي, اسكندرية",['Beach'],-2,,Beach & Waterfront,['Beach & Relaxation'],95,5.0,5.0,,['Beach & Relaxation'],standalone,1,0,0,0,0,0,0,0,0,0,morning,Egypt
518ce7b0498eb6785c29f515,Shahr El Asal (شهر العسل),Alexandria,31.13375034,29.78487408,"Bitash, اسكندرية",['Beach'],-2,,Beach & Waterfront,['Beach & Relaxation'],40,5.0,5.0,,['Beach & Relaxation'],standalone,1,0,0,0,0,0,0,0,0,0,morning,Egypt
4b4b88f8f964a520769f26e3,City Centre Alexandria (سيتي سنتر الاسكندرية),Alexandria,31.16855201,29.93218576,"Alex-Cairo Desert Rd., Km 6, الإسكندرية, اسكندرية, 21515",['Shopping Mall'],-2,,Shopping & Commercial,"['Shopping', 'Entertainment & Activities']",90,0.0,0.0,,"['Entertainment & Activities', 'Shopping']",standalone,0,0,1,0,0,0,0,1,0,0,night,Egypt
54ddb447498e3609a8dcbf7b,Cavafy Museum (متحف كفافيس),Alexandria,31.197594,29.901264,"4 Sharm El Sheikh St (El Sheik st.), Al Mesallah Sharq, اسكندرية",['Art Museum'],-2,,Historical & Cultural Site,['Cultural & Historical'],75,15.0,100.0,http://www.alexandria.gov.eg/alex/english/Cavafy%20Museum.html,['Cultural & Historical'],standalone,0,1,0,0,0,0,0,0,0,0,morning,Egypt
5028e20fe4b07a366d0c6fd8,Alexandria Aquarium Museum (متحف الأحياء المائية),Alexandria,31.21253536,29.88438964,"Qaitbay St, Al Anfūshī, اسكندرية","['Science Museum', 'Aquarium']",-2,,Natural Attraction,['Nature & Adventure'],80,10.0,20.0,,['Nature & Adventure'],standalone,0,0,0,0,1,0,0,0,0,0,afternoon,Egypt
53c95006498eabcaf33a77fd,Greco-Roman Museum (‎المتحف اليوناني الروماني),Alexandria,31.19831339,29.90636817,"العطارين, اسكندرية",['History Museum'],-2,,Historical & Cultural Site,['Cultural & Historical'],85,40.0,400.0,https://egymonuments.com/details/GraecoRomanMuseum,['Cultural & Historical'],standalone,0,1,0,0,0,0,0,0,0,0,morning,Egypt
4ca04cfb031337043ab179d5,Catacombs of Kom El Shoqafa (مقابر كوم الشقافة),Alexandria,31.17898608,29.89309337,"Al-Nasseriya St., الإسكندرية, اسكندرية","['Historic and Protected Site', 'Cemetery', 'History Museum']",-2,,Historical & Cultural Site,['Cultural & Historical'],85,30.0,200.0,https://egymonuments.com/details/KomelShoqafaCatacombs,['Cultural & Historical'],standalone,0,1,0,0,0,0,0,0,0,0,morning,Egypt
5194d79c498e9efad47ad611,Submarine diving center,Alexandria,31.20558964,29.88457956,Bahari,['Surf Spot'],-2,,Entertainment & Activities,"['Sports & Physical Activities', 'Nature & Adventure']",90,1500.0,1500.0,https://submarindiving.com/,"['Nature & Adventure', 'Sports & Physical Activities']",standalone,0,0,0,0,1,0,0,0,1,0,afternoon,Egypt
4ca062acd3c2b60cb673dcbc,Citadel of Qaitbay (قلعة قايتباى),Alexandria,31.2136528,29.88523722,"As Sayalah Sharq, Al Gomrok, اسكندرية","['Castle', 'Historic and Protected Site']",-2,,Historical & Cultural Site,['Cultural & Historical'],85,60.0,200.0,https://egymonuments.com/details/CitadelofQaitbay,['Cultural & Historical'],standalone,0,1,0,0,0,0,0,0,0,0,morning,Egypt
4d9ed5d79bf0a35d09e7020b,Roman Amphitheater (المسرح الرومانى),Alexandria,31.1941849,29.90374603,"Safeya Zaghloul St., الإسكندرية, اسكندرية",['Historic and Protected Site'],-2,,Historical & Cultural Site,['Cultural & Historical'],80,20.0,200.0,https://egymonuments.com/details/RomanAmphitheatre,['Cultural & Historical'],standalone,0,1,0,0,0,0,0,0,0,0,morning,Egypt
509cd134e4b035e93d9456c8,Pompey's Pillar (عمود السوارى),Alexandria,31.18174503,29.89705621,"Amud Al Sawary, Karmouz, اسكندرية",['Historic and Protected Site'],-2,,Historical & Cultural Site,['Cultural & Historical'],80,20.0,200.0,https://egymonuments.com/details/SerapeumofAlexandria,['Cultural & Historical'],standalone,0,1,0,0,0,0,0,0,0,0,morning,Egypt
4bcdee83937ca5932199ad92,Saint Mark Coptic Orthodox Cathedral (الكاتدرائية المرقسية بالاسكندرية),Alexandria,31.19822905,29.89942826,"Coptic Church St (El Raml), Ar Raml, اسكندرية","['Church', 'Historic and Protected Site']",-2,,Religious Site,['Religious'],65,10.0,100.0,,['Religious'],standalone,0,0,0,0,0,0,1,0,0,0,afternoon,Egypt
4fe9ccbde4b06eaf7af34656,Villa of the Birds,Alexandria,31.19495551,29.9062213,"Ar Raml, Александрія",['Historic and Protected Site'],-2,,Historical & Cultural Site,['Cultural & Historical'],80,20.0,60.0,,['Cultural & Historical'],standalone,0,1,0,0,0,0,0,0,0,0,morning,Egypt
60d6193a2c32125080a14358,Raya & Sakina House (بيت ريا وسكينة),Alexandria,31.190706,29.889904,"Makorese & El Naga Lane, Al Geneinah as Saghirah, اسكندرية",['Monument'],-2,,Historical & Cultural Site,['Cultural & Historical'],70,10.0,50.0,,['Cultural & Historical'],standalone,0,1,0,0,0,0,0,0,0,0,morning,Egypt
4d1f25bee56f6ea82a3e6b1d,Alexandria National Museum (متحف الاسكندرية القومي),Alexandria,31.20088752,29.91301083,"131 El-Shaheed Galal El-Desouky St, Qism Bāb Sharqī, اسكندرية",['Museum'],-2,,Historical & Cultural Site,['Cultural & Historical'],90,20.0,220.0,https://egymonuments.com/details/AlexandriaNationalMuseum,['Cultural & Historical'],standalone,0,1,0,0,0,0,0,0,0,0,morning,Egypt
653a35da20568f417b5dcd14,Bibliotheca Alexandrina ,Alexandria,31.20887,29.910039,"الإسكندرية, اسكندرية, 21526",['History Museum'],-2,,Historical & Cultural Site,['Cultural & Historical'],95,10.0,150.0,https://www.bibalex.org/en/page/ba_visiting,['Cultural & Historical'],standalone,0,1,0,0,0,0,0,0,0,0,morning,Egypt
4f982270e4b086d0d602bcc4,Antoniades Garden,Alexandria,31.20221033,29.95124506,"الإسكندرية, اسكندرية","['Park', 'Housing Development']",-2,,Natural Attraction,['Nature & Adventure'],60,50.0,100.0,,['Nature & Adventure'],standalone,0,0,0,0,1,0,0,0,0,0,afternoon,Egypt
698732253eb85e4cb5f60c8c,Shatby Cemetery مقابر الشاطبى الأثرية,Alexandria,31.211325,29.917095,"Al Azaritah WA Ash Shatebi, اسكندرية",['Historic and Protected Site'],-2,,Historical & Cultural Site,['Cultural & Historical'],50,20.0,60.0,https://mota.gov.eg/ar/%D8%A7%D9%84%D8%A2%D8%AB%D8%A7%D8%B1-%D9%88%D8%A7%D9%84%D9%85%D8%AA%D8%A7%D8%AD%D9%81/%D8%A7%D9%84%D9%85%D8%AC%D9%84%D8%B3-%D8%A7%D9%84%D8%A3%D8%B9%D9%84%D9%89-%D9%84%D9%84%D8%A2%D8%AB%D8%A7%D8%B1/%D8%AF%D9%84%D9%8A%D9%84-%D8%A7%D9%84%D9%85%D9%88%D8%A7%D9%82%D8%B9-%D8%A7%D9%84%D8%A3%D8%AB%D8%B1%D9%8A%D8%A9-%D8%A7%D9%84%D9%85%D9%81%D8%AA%D9%88%D8%AD%D8%A9-%D9%84%D9%84%D8%B2%D9%8A%D8%A7%D8%B1%D8%A9-%D8%AC%D8%AF%D9%8A%D8%AF/%D9%85%D9%82%D8%A7%D8%A8%D8%B1-%D8%A7%D9%84%D8%B4%D8%A7%D8%B7%D8%A8%D9%8A/,['Cultural & Historical'],standalone,0,1,0,0,0,0,0,0,0,0,morning,Egypt
5110c927e4b0cb0bdaa57a98,Alexandria Zoo (حديقة الحيوان بالإسكندرية),Alexandria,31.20561224,29.94456473,"Albert Al Awal St (Ezbet Saad), سموحة, اسكندرية",['Zoo'],-2,,Entertainment & Activities,"['Entertainment & Activities', 'Nature & Adventure']",80,20.0,20.0,,"['Entertainment & Activities', 'Nature & Adventure']",standalone,0,0,1,0,1,0,0,0,0,0,afternoon,Egypt
560464f8498e62a8fa7e67b5,Designia Mall,Alexandria,31.17300893,29.93072302,"Downtown (Alex-Cairo Desert Road), محرم بك, اسكندرية",['Shopping Mall'],-2,,Shopping & Commercial,"['Shopping', 'Entertainment & Activities', 'Nightlife & Festive']",70,0.0,0.0,,"['Entertainment & Activities', 'Nightlife & Festive', 'Shopping']",standalone,0,0,1,0,0,1,0,1,0,0,night,Egypt
52dc1bed498ea9c9d5a148b2,Green Plaza (جرين بلازا),Alexandria,31.20673184,29.96473461,"14 May Rd, سيدي جابر, اسكندرية",['Shopping Mall'],-2,,Shopping & Commercial,"['Shopping', 'Entertainment & Activities', 'Nightlife & Festive']",60,0.0,0.0,,"['Entertainment & Activities', 'Nightlife & Festive', 'Shopping']",standalone,0,0,1,0,0,1,0,1,0,0,night,Egypt
4cd56fa767c7236a43b91277,Azza (عزة),Alexandria,31.21036066,29.88223314,"11,26th Of July Rd (El Anfoushi), Al Jumruk, اسكندرية",['Ice Cream Parlor'],-2,,Other,['Food & Gastronomy'],20,40.0,40.0,,['Food & Gastronomy'],standalone,0,0,0,1,0,0,0,0,0,0,afternoon,Egypt
4f53c281e4b033653577293d,Royal Jewelry Museum (متحف المجوهرات الملكية),Alexandria,31.23913421,29.9629181,"الإسكندرية, اسكندرية","['History Museum', 'Palace']",-2,,Historical & Cultural Site,['Cultural & Historical'],85,20.0,220.0,https://egymonuments.com/details/RoyalJewelleryMuseum,['Cultural & Historical'],standalone,0,1,0,0,0,0,0,0,0,0,morning,Egypt
69159f469a7de77e09a8bb70,Stanley Beach,Alexandria,31.234301,29.949344,"الإسكندرية, اسكندرية, 21531",['Beach'],-2,,Beach & Waterfront,['Beach & Relaxation'],90,5.0,5.0,,['Beach & Relaxation'],standalone,1,0,0,0,0,0,0,0,0,0,morning,Egypt
4cd597a02944b1f709065eec,Deeb Mall (ديب مول),Alexandria,31.22802619,29.95175941,"Syria St, Rushdī, اسكندرية",['Shopping Mall'],-2,,Shopping & Commercial,"['Shopping', 'Entertainment & Activities']",65,0.0,0.0,,"['Entertainment & Activities', 'Shopping']",standalone,0,0,1,0,0,0,0,1,0,0,night,Egypt
5899df5334935502a5b9624e,Jackx Club,Alexandria,31.236644,29.952383,"303 Elgish Rd, Saba Basha, الإسكندرية, اسكندرية",['Bar'],-2,,Club,['Nightlife & Festive'],80,500.0,500.0,,['Nightlife & Festive'],standalone,0,0,0,0,0,1,0,0,0,0,night,Egypt
4b9d5a5ff964a5201ba636e3,San Stefano Grand Plaza Mall,Alexandria,31.24518656,29.96701241,"388 El Geish Rd., Sān Istifānū, اسكندرية",['Shopping Mall'],-2,,Shopping & Commercial,"['Shopping', 'Entertainment & Activities']",75,0.0,0.0,,"['Entertainment & Activities', 'Shopping']",standalone,0,0,1,0,0,0,0,1,0,0,night,Egypt
508ac0ace4b09f7bb89be553,Beau Rivage Beach (شاطئ البوريفاج),Alexandria,31.27027867,29.99754664,"سيدي بشر, اسكندرية",['Beach'],-2,,Beach & Waterfront,['Beach & Relaxation'],95,50.0,100.0,,['Beach & Relaxation'],standalone,1,0,0,0,0,0,0,0,0,0,morning,Egypt
4f8bfcefe4b047d84c6a6222,Montaza Plaza,Alexandria,31.29096546,30.02207279,"Al Montaza, Qism al Muntazah, اسكندرية","['Beach', 'Surf Spot']",-2,parent,Landmark & City Attraction,"['Nature & Adventure', 'Entertainment & Activities', 'Beach & Relaxation']",60,25.0,100.0,,"['Beach & Relaxation', 'Entertainment & Activities', 'Nature & Adventure']",parent,1,0,1,0,1,0,0,0,0,0,afternoon,Egypt
4e682486b61c7d6479475ffb,Mamoura Plaza,Alexandria,31.286816,30.030558,"El Maamoura, El Maamoura, اسكندرية",['Shopping Mall'],-2,parent,Landmark & City Attraction,"['Nature & Adventure', 'Entertainment & Activities', 'Beach & Relaxation']",60,25.0,100.0,,"['Beach & Relaxation', 'Entertainment & Activities', 'Nature & Adventure']",parent,1,0,1,0,1,0,0,0,0,0,afternoon,Egypt
5663f249498e7af0f053dc43,Heraklion Underwater Lost City (مدينة هيراكليون المفقودة),Alexandria,31.28692677,30.08821338,"25 km from Alexandria shores, الإسكندرية, اسكندرية",['Historic and Protected Site'],-2,,Natural Attraction,"['Nature & Adventure', 'Cultural & Historical']",90,1500.0,1500.0,,"['Cultural & Historical', 'Nature & Adventure']",standalone,0,1,0,0,1,0,0,0,0,0,afternoon,Egypt
5142ed02e4b03f2d27243f7b,The Hanged Mosque (المسجد المعلق),Fayoum,29.30918722,30.83784565,,['Historic and Protected Site'],-2,,Religious Site,['Religious'],40,10.0,100.0,,['Religious'],standalone,0,0,0,0,0,0,1,0,0,0,afternoon,Egypt
4f2b9f5ae4b009e970a77823,Pyramid of Amenemhat III (هرم أمنمحات الثالث),Fayoum,29.27594417,30.90642119,"Hawara, الفيوم, الفيوم",['Historic and Protected Site'],-2,,Historical & Cultural Site,['Cultural & Historical'],80,10.0,100.0,,['Cultural & Historical'],standalone,0,1,0,0,0,0,0,0,0,0,morning,Egypt
53ee1fc0498eb2fa0d21fd09,Heritage Museum (متحف التراث),Marsa Matrouh,31.35704413,27.24251965,"شارع الكورنيش (شارع اسكندرية), Maţrūḩ, مطروح",['History Museum'],-2,,Historical & Cultural Site,['Cultural & Historical'],70,20.0,80.0,https://egymonuments.gov.eg/en/museums/marsa-matrouh-museum,['Cultural & Historical'],standalone,0,1,0,0,0,0,0,0,0,0,morning,Egypt
55688a0f498e4f2374f9f0c8,Rommel Museum (متحف روميل),Marsa Matrouh,31.36594391,27.24825478,"Rommel, Maţrūḩ, مطروح",['History Museum'],-2,,Historical & Cultural Site,['Cultural & Historical'],70,10.0,100.0,,['Cultural & Historical'],standalone,0,1,0,0,0,0,0,0,0,0,morning,Egypt
4fdee203e4b0767cc7c6b4da,El Gharam Beach (شاطئ الغرام),Marsa Matrouh,31.36730647,27.22384721,"Maţrūḩ, مطروح",['Beach'],-2,,Beach & Waterfront,['Beach & Relaxation'],80,75.0,75.0,,['Beach & Relaxation'],standalone,1,0,0,0,0,0,0,0,0,0,morning,Egypt
4c0eae81d64c0f47e996285d,Rommel Beach (شاطئ روميل),Marsa Matrouh,31.35871262,27.2430253,"Maţrūḩ, مطروح",['Beach'],-2,,Beach & Waterfront,['Beach & Relaxation'],80,20.0,20.0,,['Beach & Relaxation'],standalone,1,0,0,0,0,0,0,0,0,0,morning,Egypt
5054ee25e4b0e7ceb6da8fc0,Al Awam Beach (شاطئ العوام),Marsa Matrouh,31.357634,27.230452,"Al Awam St, Maţrūḩ, مطروح",['Beach'],-2,,Beach & Waterfront,['Beach & Relaxation'],80,10.0,10.0,,['Beach & Relaxation'],standalone,1,0,0,0,0,0,0,0,0,0,morning,Egypt
4ea45539be7ba4918f0b755a,El Ledo Beach (شاطئ الليدو),Marsa Matrouh,31.358961,27.225842,"Maţrūḩ, مطروح",['Beach'],-2,,Beach & Waterfront,['Beach & Relaxation'],80,5.0,5.0,,['Beach & Relaxation'],standalone,1,0,0,0,0,0,0,0,0,0,morning,Egypt
51c8b5f6498e9604baa8ddd3,Blue Beach,Marsa Matrouh,31.35633834,27.22426064,,['Beach'],-2,,Beach & Waterfront,['Beach & Relaxation'],80,25.0,25.0,,['Beach & Relaxation'],standalone,1,0,0,0,0,0,0,0,0,0,morning,Egypt
503f5497e4b0931eb58b1274,Corniche Matrouh (كورنيش مطروح),Marsa Matrouh,31.35716248,27.23053664,"El Corniche (Alexandria. St), Marsa Matrouh","['Harbor or Marina', 'Fishing Area']",-2,,Landmark & City Attraction,['Entertainment & Activities'],50,0.0,0.0,,['Entertainment & Activities'],standalone,0,0,1,0,0,0,0,0,0,0,afternoon,Egypt
4fe1d07ae4b00017d7fe1661,Cleopatra Bath (حمام كليوباترا),Marsa Matrouh,31.37251495,27.19137305,"Maţrūḩ, مطروح","['Scenic Lookout', 'Historic and Protected Site']",-2,,Historical & Cultural Site,"['Cultural & Historical', 'Wellness & Spa']",80,10.0,50.0,,"['Cultural & Historical', 'Wellness & Spa']",standalone,0,1,0,0,0,0,0,0,0,1,morning,Egypt
53e9e6da498efde99ab34faa,Al Hana Beach (شاطئ الهنا),Marsa Matrouh,31.36005,27.243011,"Marsá Maţrūḩ, Matrouh Governorate",['Beach'],-2,,Beach & Waterfront,['Beach & Relaxation'],90,10.0,10.0,,['Beach & Relaxation'],standalone,1,0,0,0,0,0,0,0,0,0,morning,Egypt
520d453211d2e33d46932de0,Al Andalusia (الاندلسية),Marsa Matrouh,31.35619749,27.22552964,"Maţrūḩ, مطروح",['Beach'],-2,,Beach & Waterfront,['Beach & Relaxation'],80,10.0,10.0,,['Beach & Relaxation'],standalone,1,0,0,0,0,0,0,0,0,0,morning,Egypt
524acbcf11d25a3d1a9e884e,Lagoon Beach,Marsa Matrouh,31.3651807,27.24467273,"Maţrūḩ, مطروح",['Beach'],-2,,Beach & Waterfront,['Beach & Relaxation'],95,35.0,35.0,,['Beach & Relaxation'],standalone,1,0,0,0,0,0,0,0,0,0,morning,Egypt
55a3783e498ebb1b4a8bac6e,St Joseph Beach,Marsa Matrouh,31.36085642,27.22309113,"Maţrūḩ, مطروح",['Beach'],-2,,Beach & Waterfront,['Beach & Relaxation'],92,50.0,50.0,,['Beach & Relaxation'],standalone,1,0,0,0,0,0,0,0,0,0,morning,Egypt
50394943e4b0d21c2090a157,Souq Libya (سوق ليبيا),Marsa Matrouh,31.34989931,27.22420051,"Madara, Maţrūḩ, مطروح",['Flea Market'],-2,,Shopping & Commercial,['Shopping'],60,0.0,0.0,,['Shopping'],standalone,0,0,0,0,0,0,0,1,0,0,night,Egypt
529bb90511d21cbc4fe3b25e,The House of Siwa (البيت السيوي),Siwa,29.20347625,25.51817179,"Sīwah, مطروح",['Museum'],-2,,Historical & Cultural Site,['Cultural & Historical'],85,10.0,100.0,,['Cultural & Historical'],standalone,0,1,0,0,0,0,0,0,0,0,morning,Egypt
51127a6ce4b023bbb3f68695,Shali Fortress (قلعة شالى),Siwa,29.20150123,25.52022975,"Siwa Oasis, Sīwah, مطروح","['Historic and Protected Site', 'Castle', 'Mountain']",-2,,Historical & Cultural Site,['Cultural & Historical'],88,10.0,100.0,https://egymonuments.gov.eg/en/archaeological-sites/shali-village-in-siwa-oasis,['Cultural & Historical'],standalone,0,1,0,0,0,0,0,0,0,0,morning,Egypt
4f8ac6b9e4b0b1c4b0f357e0,Temple of the Oracle of Amun (معبد آمون),Siwa,29.20476723,25.54387519,"4 Km East Siwa City, Sīwah, مطروح","['Historic and Protected Site', 'Temple']",-2,,Historical & Cultural Site,['Cultural & Historical'],95,10.0,120.0,https://egymonuments.com/details/TempleofAghurmiinSiwa,['Cultural & Historical'],standalone,0,1,0,0,0,0,0,0,0,0,morning,Egypt
510a3f17e4b052a4251475bf,Tombs of The Deads Mountain (مقابر جبل الموتي),Siwa,29.21116138,25.52328909,"Siwa Oasis, Al Wadi al Jadid, مطروح","['Historic and Protected Site', 'Mountain']",-2,,Historical & Cultural Site,['Cultural & Historical'],80,10.0,120.0,https://egymonuments.com/details/TombsofGabalal-Mawta,['Cultural & Historical'],standalone,0,1,0,0,0,0,0,0,0,0,morning,Egypt
4f8b0330e4b0089dea5ac2e5,Fetnas Island (جزيرة فطناس),Siwa,29.19226147,25.4786028,,"['Scenic Lookout', 'Island']",-2,,Natural Attraction,"['Nature & Adventure', 'Beach & Relaxation']",90,0.0,0.0,,"['Beach & Relaxation', 'Nature & Adventure']",standalone,1,0,0,0,1,0,0,0,0,0,afternoon,Egypt
4ebbb58d0aafea64827f937b,Dakrour Mountain (جبل دكرور),Siwa,29.19261933,25.55101826,"South Eastern Siwa, Sīwah, مطروح",['Mountain'],-2,parent,Natural Attraction,"['Nature & Adventure', 'Cultural & Historical']",85,0.0,0.0,,"['Cultural & Historical', 'Nature & Adventure']",parent,0,1,0,0,1,0,0,0,0,0,afternoon,Egypt
50a78b43e4b0024edf373146,Abu Shrouf Spring (عين أبو شروف),Siwa,29.20255647,25.5202471,"Siwa Oasia, Sīwah, مطروح",['Hot Spring'],-2,,Natural Attraction,"['Nature & Adventure', 'Wellness & Spa']",80,0.0,0.0,,"['Nature & Adventure', 'Wellness & Spa']",standalone,0,0,0,0,1,0,0,0,0,1,afternoon,Egypt
4e2c31b5e4cd3bc1669cbdda,Safari Siwa,Siwa,29.20283058,25.5226992,"Sīwah, مطروح",['Campground'],-2,,Entertainment & Activities,"['Nature & Adventure', 'Entertainment & Activities']",95,600.0,1000.0,,"['Entertainment & Activities', 'Nature & Adventure']",standalone,0,0,1,0,1,0,0,0,0,0,afternoon,Egypt
4eba73f7775bf193ee09c4a7,Cleopatra Spring (عين كليوباترا),Siwa,29.19690002,25.55002602,"Siwa Oasia, Sīwah, مطروح",['Hot Spring'],-2,,Natural Attraction,"['Nature & Adventure', 'Wellness & Spa']",85,0.0,0.0,,"['Nature & Adventure', 'Wellness & Spa']",standalone,0,0,0,0,1,0,0,0,0,1,afternoon,Egypt
54341a1a498ef1e030f4b3ac,Siwa Salt Lake (بحيرة سيوة المالحة),Siwa,29.21149841,25.49552256,"Siwa Oasia, Sīwah, مطروح",['Lake'],-2,,Natural Attraction,"['Nature & Adventure', 'Wellness & Spa']",90,0.0,0.0,,"['Nature & Adventure', 'Wellness & Spa']",standalone,0,0,0,0,1,0,0,0,0,1,afternoon,Egypt
59fd75362aff310a9f8d68b3,Mountain Camp (كامب الجبل),Siwa,29.189783,25.556474,"سيوة, Sīwah, مطروح",['Campground'],-2,,Club,"['Nature & Adventure', 'Wellness & Spa', 'Nightlife & Festive']",80,200.0,500.0,,"['Nature & Adventure', 'Nightlife & Festive', 'Wellness & Spa']",standalone,0,0,0,0,1,1,0,0,0,1,night,Egypt
5891d3f4f68d8d7fbe6324a0,Al Arais Spring (عين العرايس),Siwa,29.20483,25.527366,"Sīwah, مطروح",['Hot Spring'],-2,,Natural Attraction,"['Nature & Adventure', 'Wellness & Spa']",80,0.0,0.0,,"['Nature & Adventure', 'Wellness & Spa']",standalone,0,0,0,0,1,0,0,0,0,1,afternoon,Egypt
68caedcec8bfc0261d5b5c2b,Bir Wahed Sulphuric Hot Spring,Siwa,29.187957,25.553717,"Siwa City, マルサ・マトルーフ",['Hot Spring'],-2,,Natural Attraction,"['Nature & Adventure', 'Wellness & Spa']",90,0.0,0.0,,"['Nature & Adventure', 'Wellness & Spa']",standalone,0,0,0,0,1,0,0,0,0,1,afternoon,Egypt
529ad2c211d2702ef89726c0,Taghaghien Island (جزيرة طغاغين),Siwa,29.22532224,25.46703035,"Siwa Oasia, Sīwah, مطروح",['Island'],-2,,Natural Attraction,"['Nature & Adventure', 'Beach & Relaxation']",85,0.0,0.0,,"['Beach & Relaxation', 'Nature & Adventure']",standalone,1,0,0,0,1,0,0,0,0,0,afternoon,Egypt
4ce3c377748d6ea8e989cc50,Alabaster Tourist Trap,Luxor,25.73657578,32.62656708,"West Bank, الأقصر, الأقصر",['Gift Store'],-2,,Shopping & Commercial,"['Shopping', 'Cultural & Historical']",40,0.0,0.0,,"['Cultural & Historical', 'Shopping']",standalone,0,1,0,0,0,0,0,1,0,0,night,Egypt
4efc503230f8809e76653357,Mummification Museum (متحف التحنيط),Luxor,25.70259722,32.64003949,"Luxor Governorate, Muḩāfaz̧at Qinā, قنا","['History Museum', 'Science Museum']",-2,,Historical & Cultural Site,['Cultural & Historical'],90,20.0,220.0,https://egymonuments.com/details/MummificationMuseumLuxor,['Cultural & Historical'],standalone,0,1,0,0,0,0,0,0,0,0,morning,Egypt
4cd3bb2e4944721e4a38eea6,Howard Carter House,Luxor,25.73902957,32.6277869,"الأقصر, الأقصر",['History Museum'],-2,,Historical & Cultural Site,['Cultural & Historical'],80,10.0,220.0,https://egymonuments.com/details/CarterHouse,['Cultural & Historical'],standalone,0,1,0,0,0,0,0,0,0,0,morning,Egypt
4b73e070f964a52099be2de3,Luxor Temple (معبد الأقصر),Luxor,25.70038069,32.6402161,"Corniche, الأقصر, الأقصر","['Historic and Protected Site', 'Museum', 'Temple']",-2,,Historical & Cultural Site,['Cultural & Historical'],95,40.0,500.0,https://egymonuments.com/details/LuxorTemple,['Cultural & Historical'],standalone,0,1,0,0,0,0,0,0,0,0,morning,Egypt
4bc43686abf49521f2bdc493,Valley of the Kings (وادي الملوك),Luxor,25.74031648,32.60177851,"West Bank, Luxor, Luxor Governorate","['Historic and Protected Site', 'History Museum']",-2,parent,Historical & Cultural Site,['Cultural & Historical'],98,60.0,750.0,https://egymonuments.com/details/ValleyOfKings,['Cultural & Historical'],parent,0,1,0,0,0,0,0,0,0,0,morning,Egypt
5fbce5e3b99a4035bf53d038,Host House Park,Luxor,25.70939,32.645924,,['State or Provincial Park'],-2,,Natural Attraction,['Nature & Adventure'],50,10.0,20.0,,['Nature & Adventure'],standalone,0,0,0,0,1,0,0,0,0,0,afternoon,Egypt
4c3ad5674565e21e42be556a,The Karnak Temple Complex (معبد الكرنك),Luxor,25.7194242,32.65446782,"Luxor, Luxor Governorate","['Historic and Protected Site', 'Temple']",-2,parent,Historical & Cultural Site,['Cultural & Historical'],96,40.0,600.0,https://egymonuments.com/details/KarnakTemple,['Cultural & Historical'],parent,0,1,0,0,0,0,0,0,0,0,morning,Egypt
4c6e4419d5c3a1cd5edcc72b,Medinet Habu (Temple of Ramses III) (مدينة هابو),Luxor,25.71840173,32.60215108,"West Bank, Luxor, Luxor Governorate","['Historic and Protected Site', 'Temple']",-2,,Historical & Cultural Site,['Cultural & Historical'],94,20.0,220.0,https://egymonuments.com/details/MedinetHabu,['Cultural & Historical'],standalone,0,1,0,0,0,0,0,0,0,0,morning,Egypt
4bf3b9623f86c9b61065b21c,Valley of the Queens (وادي الملكات),Luxor,25.72758398,32.59295839,"West Bank of the Nile, Luxor, Luxor Governorate",['Historic and Protected Site'],-2,parent,Historical & Cultural Site,['Cultural & Historical'],97,30.0,220.0,https://egymonuments.com/details/ValleyOfTheQueens,['Cultural & Historical'],parent,0,1,0,0,0,0,0,0,0,0,morning,Egypt
4cd3aeb8ecc3a09312c19b93,Al Deir Al Bahari (الدير البحري),Luxor,25.73663189,32.6119535,"Luxor, Luxor Governorate",['Historic and Protected Site'],-2,parent,Historical & Cultural Site,['Cultural & Historical'],90,40.0,360.0,https://egymonuments.gov.eg/en/archaeological-sites/deir-al-bahari,['Cultural & Historical'],parent,0,1,0,0,0,0,0,0,0,0,morning,Egypt
4f548e3fe4b0061516e3b0e9,Ramesseum Temple (معبد الرامسيوم),Luxor,25.72850864,32.61182874,"الأقصر, الأقصر","['Historic and Protected Site', 'Temple']",-2,,Historical & Cultural Site,['Cultural & Historical'],90,20.0,220.0,https://egymonuments.com/details/Ramesseum,['Cultural & Historical'],standalone,0,1,0,0,0,0,0,0,0,0,morning,Egypt
52f736f4498e32622dff1271,Temple of Mut (معبد موط),Luxor,25.71302758,32.65541388,"الأقصر, الأقصر","['Historic and Protected Site', 'Temple']",-2,,Historical & Cultural Site,"['Cultural & Historical', 'Religious']",85,10.0,200.0,https://egymonuments.com/details/MutTemple,"['Cultural & Historical', 'Religious']",standalone,0,1,0,0,0,0,1,0,0,0,morning,Egypt
4f55cb99e4b090123fc93dd1,Mortuary Temple of Seti I (معبد سيتي الاول),Luxor,25.73270082,32.62810707,"الأقصر, الأقصر","['Historic and Protected Site', 'Temple']",-2,,Historical & Cultural Site,"['Cultural & Historical', 'Religious']",85,10.0,200.0,,"['Cultural & Historical', 'Religious']",standalone,0,1,0,0,0,0,1,0,0,0,morning,Egypt
63aad6f8f09eb614facb696f,Mortuary Temple of Thutmose III,Luxor,25.730022,32.613248,"Kurna, الأقصر, 85831","['Historic and Protected Site', 'Temple']",-2,,Historical & Cultural Site,"['Cultural & Historical', 'Religious']",85,10.0,200.0,,"['Cultural & Historical', 'Religious']",standalone,0,1,0,0,0,0,1,0,0,0,morning,Egypt
4f2383b9e4b0476578c6d4b4,Luxor Balloon (منطاد الأقصر),Luxor,25.73556457,32.62371341,"Khaled Ibn Al Walid, الأقصر, الأقصر","['Moving Target', 'Scenic Lookout']",-2,,Entertainment & Activities,"['Entertainment & Activities', 'Nature & Adventure']",80,1500.0,1500.0,,"['Entertainment & Activities', 'Nature & Adventure']",standalone,0,0,1,0,1,0,0,0,0,0,afternoon,Egypt
56b33c70498ef296ba0b4a20,Ferry Harbor (مرسى المعديات),Luxor,25.701746,32.63866,"Luxor Governorate, قنا","['Harbor or Marina', 'Boat or Ferry', 'Pier']",-2,,Landmark & City Attraction,"['Entertainment & Activities', 'Nature & Adventure']",70,0.0,0.0,,"['Entertainment & Activities', 'Nature & Adventure']",standalone,0,0,1,0,1,0,0,0,0,0,afternoon,Egypt
5e0c345fc3661b0008baf40c,Mortuary Temple of Amenhotep III (المعبد الجنائزي لأمنحتب الثالث),Luxor,25.720392,32.61109,"Al Qarana, الأقصر, 83911","['Monument', 'Cemetery']",-2,,Historical & Cultural Site,['Cultural & Historical'],90,10.0,200.0,,['Cultural & Historical'],standalone,0,1,0,0,0,0,0,0,0,0,morning,Egypt
50e5f015e4b0abc0c7992f12,Old Souq (السوق القديم),Luxor,25.70136682,32.64209801,"Luxor Governorate, قنا",['Flea Market'],-2,,Shopping & Commercial,"['Shopping', 'Cultural & Historical']",70,0.0,0.0,,"['Cultural & Historical', 'Shopping']",standalone,0,1,0,0,0,0,0,1,0,0,night,Egypt
4cab34ea44a8224bf5c52b40,Nubian Museum (المتحف النوبي),Aswan,24.07961324,32.88869767,"Sheyakhah Oula, Qism Aswan, Aswān, أسوان",['History Museum'],-2,,Historical & Cultural Site,['Cultural & Historical'],80,30.0,400.0,https://egymonuments.com/details/NubiaMuseum,['Cultural & Historical'],standalone,0,1,0,0,0,0,0,0,0,0,morning,Egypt
56adda31498e65c920fecf50,Nile Museum (متحف النيل),Aswan,24.04011491,32.88336754,"Aswan Reservoir, Ash Shallāl, أسوان",['Museum'],-2,,Historical & Cultural Site,['Cultural & Historical'],70,10.0,60.0,,['Cultural & Historical'],standalone,0,1,0,0,0,0,0,0,0,0,morning,Egypt
5a6c3f8835811b02c48887f3,Princess Ferial Park,Aswan,24.083702,32.88927,"Nile Corniche, Sheyakhah Oula, Aswan Governorate",['Park'],-2,,Natural Attraction,['Nature & Adventure'],50,10.0,60.0,,['Nature & Adventure'],standalone,0,0,0,0,1,0,0,0,0,0,afternoon,Egypt
4e79dbc8483b1d4edb624001,Tombs of the Nobles (Qubbet El Hawa) (مقابر النبلاء),Aswan,24.10177644,32.89159897,"Aswan West Bank, Aswān, أسوان","['Historic and Protected Site', 'Cemetery']",-2,parent,Historical & Cultural Site,['Cultural & Historical'],90,20.0,200.0,https://egymonuments.com/details/AirDome,['Cultural & Historical'],parent,0,1,0,0,0,0,0,0,0,0,morning,Egypt
4c3ea8406faac9b6f3950e76,Philae Temple (معبد فيلة),Aswan,24.02476865,32.8838407,"Agelika Island, Aswān, أسوان","['Historic and Protected Site', 'Temple']",-2,parent,Historical & Cultural Site,['Cultural & Historical'],95,40.0,550.0,https://egymonuments.com/details/PhilaeTemple,['Cultural & Historical'],parent,0,1,0,0,0,0,0,0,0,0,morning,Egypt
4c3ed0d983a3a5935f96ee33,The Unfinished Obelisk (المسلة الناقصة),Aswan,24.07728145,32.89440659,"Aswan, Aswān, أسوان","['Historic and Protected Site', 'Monument']",-2,,Historical & Cultural Site,['Cultural & Historical'],85,20.0,220.0,https://egymonuments.com/details/UnfinishedObelisk,['Cultural & Historical'],standalone,0,1,0,0,0,0,0,0,0,0,morning,Egypt
588c8959e309e120700f2f1c,Temple of Isis (معبد إيزيس),Aswan,24.025203,32.884139,"Agilkia Island, Aswân Reservoir Colony, أسوان",['Historic and Protected Site'],-2,,Historical & Cultural Site,"['Cultural & Historical', 'Religious']",92,20.0,200.0,,"['Cultural & Historical', 'Religious']",standalone,0,1,0,0,0,0,1,0,0,0,morning,Egypt
5471df40498e2f92c99f3354,The Fatimid Cemetery (مقابر الفاطميين),Aswan,24.08071865,32.89119158,"Aswān, أسوان",['Historic and Protected Site'],-2,,Historical & Cultural Site,"['Cultural & Historical', 'Religious']",75,10.0,100.0,,"['Cultural & Historical', 'Religious']",standalone,0,1,0,0,0,0,1,0,0,0,morning,Egypt
4f8ece79e4b047e9eea08cf5,Temple of Kalabsha,Aswan,24.083345,32.886859,"Aswān, أسوان",['Historic and Protected Site'],-2,parent,Historical & Cultural Site,"['Cultural & Historical', 'Religious']",80,10.0,200.0,https://egymonuments.com/details/TempleofKalabsha,"['Cultural & Historical', 'Religious']",parent,0,1,0,0,0,0,1,0,0,0,morning,Egypt
52e622b5498e15bb2d4e5ed2,Aga Khan Mausoleum (مقام و ضريح أغا خان),Aswan,24.08804647,32.88145233,,['Historic and Protected Site'],-2,,Religious Site,['Religious'],70,10.0,100.0,,['Religious'],standalone,0,0,0,0,0,0,1,0,0,0,afternoon,Egypt
52e4d9aa498efa10ed21a639,Famine Stela (Sehel island),Aswan,24.05590071,32.87278891,"Sehel Island, Aswan Reservoir Colony, Muḩāfaz̧at Aswān, أسوان",['Historic and Protected Site'],-2,,Historical & Cultural Site,['Cultural & Historical'],65,10.0,100.0,https://egymonuments.com/details/SehelIsland,['Cultural & Historical'],standalone,0,1,0,0,0,0,0,0,0,0,morning,Egypt
502364d5e4b03cb31c4890ac,St. Simeon Monastery (دير الأنبا سمعان),Aswan,24.09487822,32.87613911,"West Bank, Aswān, أسوان","['Monastery', 'Church', 'Historic and Protected Site']",-2,,Religious Site,['Religious'],85,10.0,100.0,https://egymonuments.com/details/SamaanMonastery,['Religious'],standalone,0,0,0,0,0,0,1,0,0,0,afternoon,Egypt
500c58ede4b0546b296c86c5,Nile Corniche Aswan (كورنيش النيل بأسوان),Aswan,24.08548793,32.8906906,"Corniche, Aswān, أسوان",['Harbor or Marina'],-2,,Landmark & City Attraction,['Nature & Adventure'],80,0.0,0.0,,['Nature & Adventure'],standalone,0,0,0,0,1,0,0,0,0,0,afternoon,Egypt
4e7f32468b812627de9d783a,Aswan Botanical Island (جزيرة النباتات),Aswan,24.09408906,32.88657808,"The Nile, Aswân Reservoir Colony, أسوان","['Botanical Garden', 'Island']",-2,,Natural Attraction,['Nature & Adventure'],70,10.0,60.0,,['Nature & Adventure'],standalone,0,0,0,0,1,0,0,0,0,0,afternoon,Egypt
67d2f70cffc05c7c16cac0e7,Nubian Spices,Aswan,24.0929,32.896954,"Aswān, أسوان, 81511",['Shopping Mall'],-2,,Shopping & Commercial,['Shopping'],40,0.0,0.0,,['Shopping'],standalone,0,0,0,0,0,0,0,1,0,0,night,Egypt
547dc298498e0e913aa34d37,King Tut Museum,Sharm El Sheikh,27.90753098,34.31867086,,['History Museum'],-2,,Historical & Cultural Site,['Cultural & Historical'],90,40.0,200.0,,['Cultural & Historical'],standalone,0,1,0,0,0,0,0,0,0,0,morning,Egypt
6364408e9aeee0663970d641,Sharm Papyrus Museum,Sharm El Sheikh,27.915751,34.330048,"Sharm El Sheikh (El Souk El Kadim), Sharm el-Sheikh, Güney Sina Vilayeti, 46911",['History Museum'],-2,,Historical & Cultural Site,['Cultural & Historical'],80,40.0,200.0,,['Cultural & Historical'],standalone,0,1,0,0,0,0,0,0,0,0,morning,Egypt
62d45bf0aaeffb3094d38547,Sharm El-sheikh Museum,Sharm El Sheikh,27.931175,34.345223,"شرم الشيخ, جنوب سيناء, 46911",['Museum'],-2,,Historical & Cultural Site,['Cultural & Historical'],80,40.0,200.0,https://egymonuments.com/details/SharmElSheikhMuseum,['Cultural & Historical'],standalone,0,1,0,0,0,0,0,0,0,0,morning,Egypt
50cc31ffe4b02eda3ff0a3b6,Naama Beach,Sharm El Sheikh,27.91507434,34.33289334,"Naama Bay, شرم الشيخ, جنوب سيناء","['Beach', 'Surf Spot']",-2,,Beach & Waterfront,['Beach & Relaxation'],95,50.0,50.0,,['Beach & Relaxation'],standalone,1,0,0,0,0,0,0,0,0,0,morning,Egypt
4d2c5656467d6ea87e9ae795,Viva Beach,Sharm El Sheikh,27.90942922,34.32669783,"Pedestrians Road, شرم الشيخ, جنوب سيناء",['Beach'],-2,,Beach & Waterfront,['Beach & Relaxation'],90,50.0,50.0,,['Beach & Relaxation'],standalone,1,0,0,0,0,0,0,0,0,0,morning,Egypt
500a7c97e4b0ba42c1b5cd28,Hadaba Beach,Sharm El Sheikh,27.90810164,34.31742907,"Hadaba, شرم الشيخ, جنوب سيناء",['Beach'],-2,,Beach & Waterfront,['Beach & Relaxation'],85,50.0,50.0,,['Beach & Relaxation'],standalone,1,0,0,0,0,0,0,0,0,0,morning,Egypt
4eaaa38a61af01ea2a6cd085,Reef Beach,Sharm El Sheikh,27.86395795,34.31986926,"Sharm El Sheikh, شرم الشيخ, جنوب سيناء",['Beach'],-2,,Beach & Waterfront,"['Beach & Relaxation', 'Nature & Adventure']",92,50.0,50.0,,"['Beach & Relaxation', 'Nature & Adventure']",standalone,1,0,0,0,1,0,0,0,0,0,morning,Egypt
4cce844497d0224be8236cb8,El Fanar,Sharm El Sheikh,27.847588,34.315216,"Ras Umm sid, شرم الشيخ, جنوب سيناء","['Beach', 'Dive Spot']",-2,,Beach & Waterfront,['Beach & Relaxation'],80,50.0,50.0,,['Beach & Relaxation'],standalone,1,0,0,0,0,0,0,0,0,0,morning,Egypt
5388a984498e7a14c990eb98,Terrazzina Beach,Sharm El Sheikh,27.86223594,34.29223946,"El Salam Rd, شرم الشيخ, جنوب سيناء","['Beach', 'Surf Spot']",-2,,Beach & Waterfront,['Beach & Relaxation'],85,50.0,50.0,,['Beach & Relaxation'],standalone,1,0,0,0,0,0,0,0,0,0,morning,Egypt
4c49faea959220a13066800d,Naama Bay (خليج نعمه),Sharm El Sheikh,27.91022414,34.32508021,"Marina St. Naama Bay (El Salam Rd.), Sharm El Sheikh, SouthSinai","['Harbor or Marina', 'Beach']",-2,,Beach & Waterfront,"['Beach & Relaxation', 'Entertainment & Activities']",95,0.0,0.0,,"['Beach & Relaxation', 'Entertainment & Activities']",standalone,1,0,1,0,0,0,0,0,0,0,morning,Egypt
517f93ebe4b056b728ca38f9,Hollywood Sharm El Sheikh,Sharm El Sheikh,27.92712521,34.34512947,"215A Naama Bay (Peace Road), شرم الشيخ, جنوب سيناء","['Rest Area', 'Arts and Entertainment']",-2,,Club,"['Entertainment & Activities', 'Nightlife & Festive']",80,70.0,200.0,,"['Entertainment & Activities', 'Nightlife & Festive']",standalone,0,0,1,0,0,1,0,0,0,0,night,Egypt
50f7b26ee4b010caa0898aad,Ras Umm Sid,Sharm El Sheikh,27.909057,34.325226,"El Hadaba (Ras Umm Sid), شرم الشيخ, جنوب سيناء",['Dive Spot'],-2,,Natural Attraction,['Nature & Adventure'],70,0.0,0.0,,['Nature & Adventure'],standalone,0,0,0,0,1,0,0,0,0,0,afternoon,Egypt
4d8adee06ce6a35dd2e26942,Red Sea Diving College,Sharm El Sheikh,27.90950645,34.3264639,"Pedestrians Rd, شرم الشيخ, جنوب سيناء",['Dive Spot'],-2,,Entertainment & Activities,"['Sports & Physical Activities', 'Nature & Adventure']",90,6200.0,6200.0,https://redseacollege.com/,"['Nature & Adventure', 'Sports & Physical Activities']",standalone,0,0,0,0,1,0,0,0,1,0,afternoon,Egypt
52b42769498e8f6b98cf9455,Helwan's Khedive Tawfiq Pasha Palace (قصر توفيق باشا بحلوان),Cairo,29.757672,31.313811,"Helwan, Cairo Governorate",['Historic and Protected Site'],-2,,Historical & Cultural Site,['Cultural & Historical'],80,60.0,220.0,,['Cultural & Historical'],standalone,0,1,0,0,0,0,0,0,0,0,morning,Egypt
694baa76bdd7ef52a0abae3d,Memphis Open Air Museum And Walking Trail,Cairo,29.849371,31.254086,"Mit Rahinah, Giza Governorate",['Museum'],-2,,Historical & Cultural Site,"['Cultural & Historical', 'Nature & Adventure']",85,10.0,200.0,https://www.mitrahinamuseum.com/home,"['Cultural & Historical', 'Nature & Adventure']",standalone,0,1,0,0,1,0,0,0,0,0,morning,Egypt
4db8429643a1a75c1f6eeecc,Saqqara Necropolis,Cairo,29.87092303,31.21652484,"Saqqara Funerary Complex, Saqqara, Giza","['Historic and Protected Site', 'History Museum']",-2,parent,Historical & Cultural Site,"['Cultural & Historical', 'Nature & Adventure']",90,30.0,600.0,https://egymonuments.com/locations/details/SaqqaraMonuments,"['Cultural & Historical', 'Nature & Adventure']",parent,0,1,0,0,1,0,0,0,0,0,morning,Egypt
5024cf3be4b0817fcf5be2e0,Wax Museum (متحف الشمع),Cairo,29.86108911,31.32492365,"حلوان, القاهرة",['Art Museum'],-2,,Historical & Cultural Site,"['Entertainment & Activities', 'Cultural & Historical']",60,20.0,60.0,,"['Cultural & Historical', 'Entertainment & Activities']",standalone,0,1,1,0,0,0,0,0,0,0,morning,Egypt
4f3e89c2e4b02744e4d22802,Japanese Park (الحديقة اليابانية),Cairo,29.8476995,31.34075761,"Dr Mostafa Safwat (Mohamed Sayed Ahmed), حلوان, القاهرة",['Park'],-2,,Natural Attraction,['Nature & Adventure'],70,50.0,50.0,,['Nature & Adventure'],standalone,0,0,0,0,1,0,0,0,0,0,afternoon,Egypt
4f4613a0e4b0f8695e1cd0ef,Capritage Helwan (كابريتاج حلوان),Cairo,29.84097893,31.3329649,"Omar Ibn Abdelaziz St, حلوان, القاهرة","['Hot Spring', 'Historic and Protected Site']",-2,,Historical & Cultural Site,['Cultural & Historical'],50,10.0,100.0,,['Cultural & Historical'],standalone,0,1,0,0,0,0,0,0,0,0,morning,Egypt
4dc13de2b0fb1c18ee5e17df,Sharks Bay,Sharm El Sheikh,27.95112669,34.38473757,"Shark's Bay, شرم الشيخ, جنوب سيناء",['Bay'],-2,,Beach & Waterfront,['Beach & Relaxation'],80,50.0,50.0,,['Beach & Relaxation'],standalone,1,0,0,0,0,0,0,0,0,0,morning,Egypt
53e78fbe498eed0b9fc85d8b,Safari Sharm El Sheikh,Sharm El Sheikh,27.89990163,34.2987892,,['Mountain'],-2,,Entertainment & Activities,"['Nature & Adventure', 'Entertainment & Activities']",90,800.0,1000.0,,"['Entertainment & Activities', 'Nature & Adventure']",standalone,0,0,1,0,1,0,0,0,0,0,afternoon,Egypt
50715cade4b0f322434caeb8,Sunshine Divers Club,Sharm El Sheikh,27.95175809,34.38434351,"Sharks Bay Sunsine Beach, شرم الشيخ, جنوب سيناء, 46619",['Dive Spot'],-2,,Entertainment & Activities,"['Nature & Adventure', 'Sports & Physical Activities']",85,19120.0,19120.0,https://www.sunshinediversclub.com/,"['Nature & Adventure', 'Sports & Physical Activities']",standalone,0,0,0,0,1,0,0,0,1,0,afternoon,Egypt
51bc6740498e55ee3c21f73d,Seascope Submarine,Sharm El Sheikh,27.86165603,34.29062219,"شرم الشيخ, جنوب سيناء",['Aquarium'],-2,,Entertainment & Activities,"['Nature & Adventure', 'Entertainment & Activities']",85,2020.0,2020.0,https://www.egyptsunmarine.com/en/fleet/royal-sea-scope/location/ship,"['Entertainment & Activities', 'Nature & Adventure']",standalone,0,0,1,0,1,0,0,0,0,0,afternoon,Egypt
512f1d84e4b05f74835c05c2,Dolfina,Sharm El Sheikh,27.92472841,34.36429619,,['Aquarium'],-2,,Entertainment & Activities,"['Nature & Adventure', 'Entertainment & Activities']",80,350.0,850.0,https://dolphina.net/,"['Entertainment & Activities', 'Nature & Adventure']",standalone,0,0,1,0,1,0,0,0,0,0,afternoon,Egypt
5d500d29a030ea00079a1825,Grand Rotana Scorpion Diving Center,Sharm El Sheikh,27.939502,34.385132,"Sharm Al Sheikh, جنوب سيناء",['Aquarium'],-2,,Entertainment & Activities,"['Nature & Adventure', 'Sports & Physical Activities']",85,370.0,370.0,https://scorpiondive.com/grand-rotana-en/,"['Nature & Adventure', 'Sports & Physical Activities']",standalone,0,0,0,0,1,0,0,0,1,0,afternoon,Egypt
4db992a0fa8c978590d30ff7,Old Souq,Sharm El Sheikh,27.91601823,34.33041555,"شرم الشيخ, جنوب سيناء",['Flea Market'],-2,,Shopping & Commercial,['Shopping'],60,0.0,0.0,,['Shopping'],standalone,0,0,0,0,0,0,0,1,0,0,night,Egypt
4bb731db2f70c9b63f5c8630,Hard Rock Cafe Sharm El Sheikh,Sharm El Sheikh,27.909282,34.323844,"El Soultan Qabous Street, Na'Ama Bay, South Sinai (El Salam Rd.), شرم الشيخ, جنوب سيناء, 46619",['Bar'],-2,,Club,"['Food & Gastronomy', 'Entertainment & Activities', 'Nightlife & Festive']",80,1000.0,1000.0,https://cafe.hardrock.com/sharm-el-sheikh/,"['Entertainment & Activities', 'Food & Gastronomy', 'Nightlife & Festive']",standalone,0,0,1,1,0,1,0,0,0,0,night,Egypt
518a837d498ebf8cecd071d9,hurghada marina museum and aquarium,Hurghada,27.28036578,33.77234377,"الغردقة, El-Bahr el-Ahmar","['Museum', 'Aquarium']",-2,,Landmark & City Attraction,"['Cultural & Historical', 'Nature & Adventure']",75,2000.0,2000.0,https://www.hurghadaaquarium.com/reservation.html,"['Cultural & Historical', 'Nature & Adventure']",standalone,0,1,0,0,1,0,0,0,0,0,afternoon,Egypt
4f87f8afe4b09582a0ebebf2,Paradise Island,Hurghada,27.2538654,33.8342899,"الغردقة, El-Bahr el-Ahmar",['Beach'],-2,,Beach & Waterfront,['Beach & Relaxation'],85,16000.0,16000.0,https://www.paradiseislandhurghada.com/,['Beach & Relaxation'],standalone,1,0,0,0,0,0,0,0,0,0,morning,Egypt
550033a8498e5b63bb33288f,Felfela Beach,Hurghada,27.2073931,33.8481906,"الغردقة, El-Bahr el-Ahmar",['Beach'],-2,,Beach & Waterfront,['Beach & Relaxation'],80,50.0,50.0,,['Beach & Relaxation'],standalone,1,0,0,0,0,0,0,0,0,0,morning,Egypt
4cae218c8b57a1cdbcfb9d75,Hurghada Promenade (الممشي),Hurghada,27.19019316,33.83310556,"Hurghada, الغردقة, El-Bahr el-Ahmar",['Pedestrian Plaza'],-2,,Landmark & City Attraction,"[ 'Entertainment & Activities', 'Nightlife & Festive']",65,0.0,0.0,,"['Entertainment & Activities', 'Nightlife & Festive']",standalone,0,0,1,0,0,1,0,0,0,0,afternoon,Egypt
4e6d239a483bff3f078a4755,Hurghada Marina,Hurghada,27.22475329,33.84089708,"Sheraton Rd (El-Shohada), الغردقة, El-Bahr el-Ahmar",['Harbor or Marina'],-2,,Landmark & City Attraction,"['Beach & Relaxation', 'Entertainment & Activities', 'Nightlife & Festive', 'Wellness & Spa']",70,0.0,0.0,,"['Beach & Relaxation', 'Entertainment & Activities', 'Nightlife & Festive', 'Wellness & Spa']",standalone,1,0,1,0,0,1,0,0,0,1,afternoon,Egypt
5ca8825d66f3cd002c4d60e7,Hurghada City Center,Hurghada,27.25517281,33.83344489,"El Bahr St, الغردقة, El-Bahr el-Ahmar",['Shopping Mall'],-2,,Shopping & Commercial,"['Shopping', 'Entertainment & Activities']",60,0.0,0.0,,"['Entertainment & Activities', 'Shopping']",standalone,0,0,1,0,0,0,0,1,0,0,night,Egypt
52505eaa11d20f02901b0da6,Esplanada Mall,Hurghada,27.189778,33.833224,"Mohamed Said St (Yussuf Affifi Rd), الغردقة, El-Bahr el-Ahmar",['Shopping Mall'],-2,,Shopping & Commercial,['Shopping'],65,0.0,0.0,,['Shopping'],standalone,0,0,0,0,0,0,0,1,0,0,night,Egypt
50a36ac6e4b0344e3383cef8,Lagoon Beach Dahab,Dahab,28.47200415,34.50705389,"The Lagoon, دهب, جنوب سيناء",['Surf Spot'],-2,,Beach & Waterfront,['Beach & Relaxation'],80,0.0,0.0,,['Beach & Relaxation'],standalone,1,0,0,0,0,0,0,0,0,0,morning,Egypt
4c555747a724e21ef829e8f7,Big Blue Dahab,Dahab,28.48929159,34.51577494,"دهب, جنوب سيناء",['Beach'],-2,,Entertainment & Activities,"['Nature & Adventure', 'Sports & Physical Activities']",85,2250.0,2250.0,https://bigbluedahab.com/,"['Nature & Adventure', 'Sports & Physical Activities']",standalone,0,0,0,0,1,0,0,0,1,0,afternoon,Egypt
5354f704498e973d0efe6b0d,Harry Nass Kitesurf Center #1,Dahab,28.477343,34.50135,,['Surf Spot'],-2,,Entertainment & Activities,"['Nature & Adventure', 'Sports & Physical Activities']",85,3000.0,3000.0,https://www.harry-nass.com/en/,"['Nature & Adventure', 'Sports & Physical Activities']",standalone,0,0,0,0,1,0,0,0,1,0,afternoon,Egypt
600596f97515ea1d8d3966e8,The Nabatean Port,Dahab,28.493921,34.517339,"دهب, جنوب سيناء, 45615",['Historic and Protected Site'],-2,,Historical & Cultural Site,['Cultural & Historical'],70,0.0,0.0,,['Cultural & Historical'],standalone,0,1,0,0,0,0,0,0,0,0,morning,Egypt
4bc59082ccbcef3b60a6e6d2,Blue Hole Dive Site,Dahab,28.57298962,34.53741904,"Dahab, دهب, جنوب سيناء",['Dive Spot'],-2,,Natural Attraction,"['Nature & Adventure', 'Sports & Physical Activities']",90,25.0,250.0,,"['Nature & Adventure', 'Sports & Physical Activities']",standalone,0,0,0,0,1,0,0,0,1,0,afternoon,Egypt
51857452498eb7d510a4921f,Al Tuwailat Valley (وادي الطويلات),Dahab,28.49476027,34.47334168,"Wadi Feiran, دهب, جنوب سيناء",['Mountain'],-2,,Natural Attraction,['Nature & Adventure'],65,200.0,1000.0,,['Nature & Adventure'],standalone,0,0,0,0,1,0,0,0,0,0,afternoon,Egypt
57c1403e498e6005b3c051fa,Liquid Adventure,Dahab,28.491344,34.516028,"Mashraba Rd, دهب, جنوب سيناء",['Dive Spot'],-2,,Entertainment & Activities,"['Nature & Adventure', 'Sports & Physical Activities']",80,4000.0,4000.0,https://liquidadventuresdahab.com/,"['Nature & Adventure', 'Sports & Physical Activities']",standalone,0,0,0,0,1,0,0,0,1,0,afternoon,Egypt
69e4b8e0811969439ed34d78,New Ramses Dahab Mall,Dahab,28.492302,34.513306,جنوب سيناء,['Shopping Mall'],-2,,Shopping & Commercial,['Shopping'],40,0.0,0.0,,['Shopping'],standalone,0,0,0,0,0,0,0,1,0,0,night,Egypt
51c0a5f3498ef925ef2641dd,Gharnata Beach (غرناطه بيتش),Arish,31.14452,33.804618,"العريش, شمال سيناء",['Beach'],-2,,Beach & Waterfront,['Beach & Relaxation'],80,50.0,50.0,,['Beach & Relaxation'],standalone,1,0,0,0,0,0,0,0,0,0,morning,Egypt
51c47553498e89b98bd4927b,Resa-beach,Arish,31.157083,33.842443,,['Beach'],-2,,Beach & Waterfront,['Beach & Relaxation'],80,50.0,50.0,,['Beach & Relaxation'],standalone,1,0,0,0,0,0,0,0,0,0,morning,Egypt
4ce2f64a7e9b721ea7c433f1,Marsa Alam Diving Center Deep south-divers,Marsa Alam,25.08184158,34.89160055,"مرسى علم, El-Bahr el-Ahmar",['Beach'],-2,,Entertainment & Activities,"['Nature & Adventure', 'Sports & Physical Activities']",85,4000.0,4000.0,https://deepsouthdiverseg.com/,"['Nature & Adventure', 'Sports & Physical Activities']",standalone,0,0,0,0,1,0,0,0,1,0,afternoon,Egypt
4e9bdc9f2c5b4d6405e8b833,Dolphin House,Marsa Alam,25.08171834,34.89262947,,['Beach'],-2,,Natural Attraction,['Nature & Adventure'],85,4000.0,4000.0,https://deepsouthdiverseg.com/tours/dolphin-house-shaab-samadai/,['Nature & Adventure'],standalone,0,0,0,0,1,0,0,0,0,0,afternoon,Egypt
59213569dff81575e6855255,Marsa Nayzak,Marsa Alam,25.055586,34.90492,"14 km South of Marsa Alam, مرسى علم, El-Bahr el-Ahmar","['Scenic Lookout', 'Beach']",-2,,Natural Attraction,['Nature & Adventure'],70,0.0,0.0,,['Nature & Adventure'],standalone,0,0,0,0,1,0,0,0,0,0,afternoon,Egypt
4ccc9d54ba0a5481cd953e59,Fustat Wadi El Gemal (فسطاط وادي الجمال),Marsa Alam,25.05298681,34.89908284,"مرسى علم, El-Bahr el-Ahmar",['Island'],-2,,Natural Attraction,['Nature & Adventure'],75,25.0,250.0,,['Nature & Adventure'],standalone,0,0,0,0,1,0,0,0,0,0,afternoon,Egypt
4eba21e777c8bf33ea325611,Pharaoh's Island (salah el din citadel),Taba,29.46272936,34.86011267,"Taba, طابا, جنوب سيناء","['Historic and Protected Site', 'Island']",-2,,Historical & Cultural Site,['Cultural & Historical'],80,25.0,400.0,,['Cultural & Historical'],standalone,0,1,0,0,0,0,0,0,0,0,morning,Egypt
55f25c18498eafa8a1d33425,Fayrouz Beach Camp,Nuweiba,29.010298,34.684938,,['Campground'],-2,,Beach & Waterfront,"['Beach & Relaxation', 'Nature & Adventure']",80,50.0,50.0,,"['Beach & Relaxation', 'Nature & Adventure']",standalone,1,0,0,0,1,0,0,0,0,0,morning,Egypt
625edc7bc34b164c94d71d04,Luna Beach Camp,Nuweiba,29.102365,34.677433,"جنوب سيناء, 45615",['Campground'],-2,,Beach & Waterfront,"['Beach & Relaxation', 'Nature & Adventure']",80,50.0,50.0,,"['Beach & Relaxation', 'Nature & Adventure']",standalone,1,0,0,0,1,0,0,0,0,0,morning,Egypt
58e9e2ff5804ea72c3dce9ef,Quzoud Camp,Nuweiba,29.076275,34.671112,جنوب سيناء,['Campground'],-2,,Beach & Waterfront,"['Beach & Relaxation', 'Nature & Adventure']",80,100.0,200.0,,"['Beach & Relaxation', 'Nature & Adventure']",standalone,1,0,0,0,1,0,0,0,0,0,morning,Egypt
4ef340ba93adff223f5e71ed,Kumkum,Nuweiba,29.0913465,34.67890337,Sinai,['Campground'],-2,,Beach & Waterfront,"['Beach & Relaxation', 'Nature & Adventure']",20,100.0,200.0,,"['Beach & Relaxation', 'Nature & Adventure']",standalone,1,0,0,0,1,0,0,0,0,0,morning,Egypt
56546cf9498eb4c9c494c260,Wadi El-Weshwashy (وادي الوشواشي),Nuweiba,28.97653594,34.65530568,"Ras Shitan, South Sinai, جنوب سيناء",['Scenic Lookout'],-2,,Natural Attraction,['Nature & Adventure'],60,25.0,250.0,,['Nature & Adventure'],standalone,0,0,0,0,1,0,0,0,0,0,afternoon,Egypt
61d575e01addeb710e6025d6,Cinderella Camp Nuweiba,Nuweiba,29.011292,34.684467,"Small Dune (Duna Beach Nuweiba), Nuweiba, جنوب سيناء, 46618",['Campground'],-2,,Beach & Waterfront,"['Beach & Relaxation', 'Nature & Adventure']",80,100.0,200.0,,"['Beach & Relaxation', 'Nature & Adventure']",standalone,1,0,0,0,1,0,0,0,0,0,morning,Egypt
648078105885211f8ea0f053,Blue Wave,Nuweiba,29.099978,34.678565,"Nuwieba Taba Road, جنوب سيناء",['Beach'],-2,,Beach & Waterfront,['Beach & Relaxation'],20,100.0,200.0,,['Beach & Relaxation'],standalone,1,0,0,0,0,0,0,0,0,0,morning,Egypt
5262b86111d2266b19ef30db,The Moon Beach (شط القمر),El Tor,28.26477523,33.6082077,"Al Tor, الطور, جنوب سيناء",['Beach'],-2,,Beach & Waterfront,['Beach & Relaxation'],80,50.0,50.0,,['Beach & Relaxation'],standalone,1,0,0,0,0,0,0,0,0,0,morning,Egypt
54914f6c498ed831ab70a7e4,Moses Pool (حمام موسي),El Tor,28.26621274,33.59584022,,"['Historic and Protected Site', 'Hot Spring']",-2,,Natural Attraction,['Nature & Adventure'],60,10.0,100.0,,['Nature & Adventure'],standalone,0,0,0,0,1,0,0,0,0,0,afternoon,Egypt
4f145f14e4b0d59e22e23fa6,St. Catherine's Monastery (دير سانت كاترين),Saint Catherine,28.55661341,33.97521677,"St. Catherine, St. Catherine, جنوب سيناء","['Monastery', 'Church', 'Historic and Protected Site']",-2,parent,Religious Site,"['Cultural & Historical', 'Religious']",90,0.0,0.0,https://egymonuments.gov.eg/en/archaeological-sites/saint-catherine-s-monastery/,"['Cultural & Historical', 'Religious']",parent,0,1,0,0,0,0,1,0,0,0,afternoon,Egypt
4b815e3cf964a520e1a130e3,Mount Sinai (جبل موسى),Saint Catherine,28.55643584,33.97487384,"St Catherine Protectorate, Saint Catherine, جنوب سيناء","['Mountain', 'Hiking Trail']",-2,parent,Natural Attraction,"['Nature & Adventure', 'Cultural & Historical']",90,25.0,250.0,,"['Cultural & Historical', 'Nature & Adventure']",parent,0,1,0,0,1,0,0,0,0,0,afternoon,Egypt
5f5e1abf54e9ca2cdbd22c09,The Red Mount,Saint Catherine,28.556845,33.97464,"Saint Catherine, جنوب سيناء, 45615",['Mountain'],-2,,Natural Attraction,['Nature & Adventure'],60,25.0,250.0,,['Nature & Adventure'],standalone,0,0,0,0,1,0,0,0,0,0,afternoon,Egypt
52c34f81498eb923296fc870,Saint Catherine Mount,Saint Catherine,28.63806603,33.99482697,"St. Catherine, Saint Catherine, جنوب سيناء",['Mountain'],-2,,Natural Attraction,['Nature & Adventure'],80,25.0,250.0,,['Nature & Adventure'],standalone,0,0,0,0,1,0,0,0,0,0,afternoon,Egypt
51488318e4b03fd0e290177c,Tornado Surf Centre,Safaga,26.795865,33.941691,,['Surf Spot'],-2,,Entertainment & Activities,"['Sports & Physical Activities', 'Nature & Adventure']",90,2000.0,2000.0,https://www.tornadosurf.com/en/,"['Nature & Adventure', 'Sports & Physical Activities']",standalone,0,0,0,0,1,0,0,0,1,0,afternoon,Egypt
4e3a9932ae6019d8e5d4589a,Dune Diving Centre,Safaga,26.79237331,33.9347966,"سفاجا, El-Bahr el-Ahmar",['Water Park'],-2,,Entertainment & Activities,"['Sports & Physical Activities', 'Nature & Adventure']",90,6000.0,6000.0,https://redsea.dune-world.com/en/egyd/center,"['Nature & Adventure', 'Sports & Physical Activities']",standalone,0,0,0,0,1,0,0,0,1,0,afternoon,Egypt
518d168b498eb6785e0bf66b,Quseir port,El Quseir,26.16525616,34.24298191,"Flamenco Beach El Quseir, Al Quşayr, El-Bahr el-Ahmar",['Beach'],-2,,Landmark & City Attraction,['Nature & Adventure'],40,0.0,0.0,,['Nature & Adventure'],standalone,0,0,0,0,1,0,0,0,0,0,afternoon,Egypt
4e920e47f5b95064c6901c77,Pharaoh Dive Club,El Quseir,26.14712917,34.25870328,"El Quseir, El-Bahr el-Ahmar",['Beach'],-2,,Entertainment & Activities,"['Sports & Physical Activities', 'Nature & Adventure']",90,4000.0,4000.0,https://www.pharaohdiveclub.com/,"['Nature & Adventure', 'Sports & Physical Activities']",standalone,0,0,0,0,1,0,0,0,1,0,afternoon,Egypt
53a00458498e06f4cce15465,Al Quseir Fort (حصن القُصير),El Quseir,26.10464859,34.28323364,"Quseir, Red Sea, El-Bahr el-Ahmar",['Historic and Protected Site'],-2,,Historical & Cultural Site,['Cultural & Historical'],80,10.0,100.0,,['Cultural & Historical'],standalone,0,1,0,0,0,0,0,0,0,0,morning,Egypt
6187d93a88f4212e9c7c7e9b,Deep Oceanblue Diving Center,El Quseir,26.166201,34.242636,"El-Bahr el-Ahmar, 84712",['Dive Spot'],-2,,Entertainment & Activities,"['Sports & Physical Activities', 'Nature & Adventure']",90,4000.0,4000.0,https://www.deep-ocean-blue.com/en/,"['Nature & Adventure', 'Sports & Physical Activities']",standalone,0,0,0,0,1,0,0,0,1,0,afternoon,Egypt
4cc0ff6667a3b1f7651bc60e,Abu Simbel Temples (معبدي أبو سمبل),Aswan,22.33750698,31.62364415,"West Bank of Lake Nasser, Abu Simbel, Abu Simbel, أسوان",['Historic and Protected Site'],-2,parent,Historical & Cultural Site,['Cultural & Historical'],95,30.0,820.0,Abu Simbel Temple - Book Your Tickets,['Cultural & Historical'],parent,0,1,0,0,0,0,0,0,0,0,morning,Egypt
54def5f4498e89ccb2ec8754,Lake Nasser,Aswan,22.33745335,31.62706375,"Aswân Reservoir Colony, أسوان",['Lake'],-2,,Natural Attraction,['Nature & Adventure'],80,0.0,0.0,,['Nature & Adventure'],standalone,0,0,0,0,1,0,0,0,0,0,afternoon,Egypt
4c3c49495418897c0e8b0803,Dendera Temple Complex (معبد دندره),Dendera,26.14284096,32.67062545,"2.5 Km South-East of Dendera, قنا, قنا","['Temple', 'Historic and Protected Site']",-2,,Historical & Cultural Site,['Cultural & Historical'],90,20.0,300.0,https://egymonuments.gov.eg/monuments/temple-of-dendera/,['Cultural & Historical'],standalone,0,1,0,0,0,0,0,0,0,0,morning,Egypt
515dac44e4b09c75b54fe8ef,Assalah Beach,Dahab,28.50933417,34.5177542,"Assalah, دهب, جنوب سيناء","['Beach', 'Surf Spot']",-2,,Beach & Waterfront,['Beach & Relaxation'],90,50.0,50.0,,['Beach & Relaxation'],standalone,1,0,0,0,0,0,0,0,0,0,morning,Egypt
509f8929e4b044f764cfdf2a,Napoleon Reef,Dahab,28.499113,34.519819,"Masbat, دهب, جنوب سيناء",['Dive Spot'],-2,,Natural Attraction,['Nature & Adventure'],80,1000.0,1300.0,,['Nature & Adventure'],standalone,0,0,0,0,1,0,0,0,0,0,afternoon,Egypt
50cdd32ce4b09a6d9ee07019,Dahab Mountains,Dahab,28.5023053,34.51987725,"Dahab, دهب, جنوب سيناء",['Mountain'],-2,,Natural Attraction,['Nature & Adventure'],80,0.0,0.0,,['Nature & Adventure'],standalone,0,0,0,0,1,0,0,0,0,0,afternoon,Egypt
53b53196498ea7ec7d3b4372,Anemone Beach,Hurghada,27.21136492,33.84290846,"Sheraton st. (Old Sheraton st.), الغردقة, El-Bahr el-Ahmar",['Beach'],-2,,Beach & Waterfront,['Beach & Relaxation'],90,50.0,50.0,,['Beach & Relaxation'],standalone,1,0,0,0,0,0,0,0,0,0,morning,Egypt
546dd6d4498e44fc8640fb4b,orange beach,Hurghada,27.21296952,33.84253245,"الغردقة, El-Bahr el-Ahmar",['Beach'],-2,,Beach & Waterfront,['Beach & Relaxation'],90,50.0,50.0,,['Beach & Relaxation'],standalone,1,0,0,0,0,0,0,0,0,0,morning,Egypt
621336db5a46ab04208f8924,Pro Master Red Sea Diving Club,Hurghada,27.215984,33.842167,"الغردقة, El-Bahr el-Ahmar",['Dive Spot'],-2,,Entertainment & Activities,"['Nature & Adventure', 'Sports & Physical Activities']",80,6200.0,6200.0,https://promasterhurghada.com/,"['Nature & Adventure', 'Sports & Physical Activities']",standalone,0,0,0,0,1,0,0,0,1,0,afternoon,Egypt
59060a35cab41002191dbb7f,Cleopatra Bazar,Hurghada,27.21316137,33.84015441,"Sheraton Road, الغردقة, El-Bahr el-Ahmar",['Shopping Mall'],-2,,Shopping & Commercial,['Shopping'],60,0.0,0.0,https://www.cleopatrabazar.com/,['Shopping'],standalone,0,0,0,0,0,0,0,1,0,0,night,Egypt
5586bb55498ea911b1721188,Sun Temple of Niuserre (معبد الشمس ني أوسر رع),Cairo,29.90395512,31.1941123,"Abou Ghorab, Abū Şīr, محافظة الجيزة",['Historic and Protected Site'],-2,,Historical & Cultural Site,['Cultural & Historical'],90,10.0,100.0,,['Cultural & Historical'],standalone,0,1,0,0,0,0,0,0,0,0,morning,Egypt
536cb011498e39531544ff76,Abusir Necropolis (اهرامات ابو صير),Cairo,29.89624303,31.20245934,"Abu Sir, Muḩāfaz̧at al Jīzah, محافظة الجيزة",['Historic and Protected Site'],-2,,Historical & Cultural Site,['Cultural & Historical'],80,10.0,100.0,,['Cultural & Historical'],standalone,0,1,0,0,0,0,0,0,0,0,morning,Egypt
4f804cd0e4b0a458b9d055b8,Meyr Biton Synagogue (معبد مائير عنايم),Cairo,29.956764,31.26479,"St.13, Maadi as Sarayat Al Gharbeyah, Cairo Governorate","['Synagogue', 'Historic and Protected Site']",-2,,Religious Site,['Religious'],60,10.0,100.0,,['Religious'],standalone,0,0,0,0,0,0,1,0,0,0,afternoon,Egypt
5050d39be4b030bfc6ef4e58,El Nahr El Khaled Harbor (مرسى النهر الخالد),Cairo,29.9489382,31.26335473,"Nile Corniche, Al Fārūqīyah, القاهرة","['Harbor or Marina', 'Boat Rental']",-2,,Entertainment & Activities,"['Entertainment & Activities', 'Nightlife & Festive']",70,50.0,100.0,,"['Entertainment & Activities', 'Nightlife & Festive']",standalone,0,0,1,0,0,1,0,0,0,0,afternoon,Egypt
63f77e3715a6fd593b9b4d78,Anapos Boat,Cairo,29.94952,31.262659,"القاهرة, القاهرة, 11728",['Boat Launch'],-2,,Entertainment & Activities,"['Entertainment & Activities', 'Nightlife & Festive']",50,500.0,500.0,,"['Entertainment & Activities', 'Nightlife & Festive']",standalone,0,0,1,0,0,1,0,0,0,0,afternoon,Egypt
4c8b7b66770fb60cd91edcc3,Wadi Degla Protectorate (محمية وادي دجلة),Cairo,29.95988953,31.33071427,"Wadi Degla - Maadi, Maadi, القاهرة","['Nature Preserve', 'Scenic Lookout']",-2,,Natural Attraction,['Nature & Adventure'],80,10.0,20.0,,['Nature & Adventure'],standalone,0,0,0,0,1,0,0,0,0,0,afternoon,Egypt
519dcd44498e2ebd18d8e1d2,Mall of Egypt (مول مصر),Cairo,29.9713988,31.01797947,"El Wahat Road (Media Production City), Madīnat Sittah Uktūbar, محافظة الجيزة",['Shopping Mall'],-2,parent,Shopping & Commercial,"['Shopping', 'Entertainment & Activities']",80,0.0,0.0,,"['Entertainment & Activities', 'Shopping']",parent,0,0,1,0,0,0,0,1,0,0,night,Egypt
4d14faf2401db60cb6d6dca4,Mall of Arabia (مول العرب),Cairo,30.00674701,30.97559132,"26th July Axis (Juhayna Sq), 6th of October, Giza",['Shopping Mall'],-2,parent,Shopping & Commercial,"['Shopping', 'Entertainment & Activities']",80,0.0,0.0,,"['Entertainment & Activities', 'Shopping']",parent,0,0,1,0,0,0,0,1,0,0,night,Egypt
4fb02e2be4b02f54b8bfe150,Arkan Plaza (أركان بلازا),Cairo,30.02029872,31.0035038,"Plot 31, El Sheikh Zayed (Infront of Zayed 2000 Compound), El-Sheikh Zayed City, محافظة الجيزة",['Shopping Mall'],-2,,Shopping & Commercial,"['Shopping', 'Entertainment & Activities', 'Nightlife & Festive']",70,0.0,0.0,,"['Entertainment & Activities', 'Nightlife & Festive', 'Shopping']",standalone,0,0,1,0,0,1,0,1,0,0,night,Egypt
5296147a11d2b2f1d78835e8,Al Guezira Plaza (الجزيرة بلازا),Cairo,30.02041437,31.00257851,"Plot 33, 6th Neighbourhood, 4th District (Beside Arkan - Infront of Zayed 2000), Sheikh Zayed, 6th of October",['Shopping Mall'],-2,,Shopping & Commercial,"['Shopping', 'Entertainment & Activities', 'Nightlife & Festive']",50,0.0,0.0,,"['Entertainment & Activities', 'Nightlife & Festive', 'Shopping']",standalone,0,0,1,0,0,1,0,1,0,0,night,Egypt
5d6a9056bc66980008cc0037,El Morshedy Plaza Mall,Cairo,30.018198,31.003902,"Beside Galleria 40, Back of El Gezira Plaza (26th of July Axis), El Sheikh Zayed City, Giza, 12556",['Shopping Mall'],-2,,Shopping & Commercial,['Shopping'],50,0.0,0.0,,['Shopping'],standalone,0,0,0,0,0,0,0,1,0,0,night,Egypt
4e184f98183880768f3f3739,Cityscape Mall (سيتي سكيب مول),Cairo,29.96282311,30.92673619,"Al Horreya Sq, 6 October, القاهرة",['Shopping Mall'],-2,parent,Shopping & Commercial,"['Shopping', 'Entertainment & Activities']",50,0.0,0.0,,"['Entertainment & Activities', 'Shopping']",parent,0,0,1,0,0,0,0,1,0,0,night,Egypt
4fb791b2e4b0cbce351e2eb2,Grand Egyptian Museum (المتحف المصري الكبير),Cairo,29.9938981,31.11940742,"Al Remaya Sq, 6 October City, Giza",['History Museum'],-2,parent,Historical & Cultural Site,['Cultural & Historical'],95,200.0,1590.0,https://gem.eg/,['Cultural & Historical'],parent,0,1,0,0,0,0,0,0,0,0,morning,Egypt
4c05fbc15753c928804a3af1,Egypt Papyrus Museum,Cairo,29.98539106,31.14307418,"98 Haram St, El Haram, Giza, 11511",['Art Museum'],-2,,Historical & Cultural Site,['Cultural & Historical'],85,20.0,60.0,,['Cultural & Historical'],standalone,0,1,0,0,0,0,0,0,0,0,morning,Egypt
5d0b8ac02f61e800239aa275,Giza Necropolis,Cairo,29.98114486,31.13418102,"The Pyramids Hill, Al Ahram, Giza",['Historic and Protected Site'],-2,parent,Historical & Cultural Site,"['Cultural & Historical', 'Nature & Adventure']",95,60.0,700.0,https://egymonuments.com/locations/details/Pyramids,"['Cultural & Historical', 'Nature & Adventure']",parent,0,1,0,0,1,0,0,0,0,0,morning,Egypt
4d2adbd8068e8cfa2a68dd4c,The Pharaonic Village (القرية الفرعونية),Cairo,29.99740926,31.21527841,"3 El Bahr El Aazam St, Sāqiyat Makkī, محافظة الجيزة",['History Museum'],-2,parent,Historical & Cultural Site,"['Cultural & Historical', 'Entertainment & Activities']",85,350.0,350.0,https://pharaonicvillage.com/plan_your_visit/,"['Cultural & Historical', 'Entertainment & Activities']",parent,0,1,1,0,0,0,0,0,0,0,morning,Egypt
50544a7ae4b06562e3180ce8,National Museum of Egyptian Civilization (NMEC) (المتحف القومي للحضارة المصرية),Cairo,30.00625195,31.2494889,"El Fustat (Ain El Sira), مصر القديمة, القاهرة, 00000",['History Museum'],-2,,Historical & Cultural Site,['Cultural & Historical'],90,90.0,550.0,https://nmec.gov.eg/,['Cultural & Historical'],standalone,0,1,0,0,0,0,0,0,0,0,morning,Egypt
4f129beee4b0380203e68a79,Um Kalthoum Museum (متحف ام كلثوم),Cairo,30.00780084,31.22564881,"1 Al Malek Al Saleh Rd, روضة جزيره, القاهرة",['Art Museum'],-2,,Historical & Cultural Site,['Cultural & Historical'],75,20.0,60.0,https://www.umkalthoum.gov.eg/,['Cultural & Historical'],standalone,0,1,0,0,0,0,0,0,0,0,morning,Egypt
5198a109498e1c057193492e,Egyptian Geological Museum (متحف الجيولوجيا),Cairo,30.00080008,31.22840478,"Nile Corniche (Zahraa Athar El Nabi), Athar an Nabī, القاهرة",['Science Museum'],-2,,Historical & Cultural Site,"['Cultural & Historical', 'Nature & Adventure']",75,20.0,60.0,,"['Cultural & Historical', 'Nature & Adventure']",standalone,0,1,0,0,1,0,0,0,0,0,morning,Egypt
5262819c498e8191a5cd1035,Manasterly Palace (قصر المانسترلى),Cairo,30.00729289,31.22487736,"1, Al Malek Al Saleh Road, Cairo, Manial","['Historic and Protected Site', 'Music Venue', 'Palace']",-2,parent,Historical & Cultural Site,['Cultural & Historical'],75,20.0,120.0,https://egymonuments.gov.eg/en/news/a-virtual-tour-through-al-manasterly-palace-and-the-nilometer,['Cultural & Historical'],parent,0,1,0,0,0,0,0,0,0,0,morning,Egypt
66abf2016481e01a0e1d1fc0,Nile Zoo,Cairo,29.979844,31.231433,"القاهرة, القاهرة, 11745",['Zoo Exhibit'],-2,,Natural Attraction,"['Nature & Adventure', 'Entertainment & Activities']",80,20.0,20.0,,"['Entertainment & Activities', 'Nature & Adventure']",standalone,0,0,1,0,1,0,0,0,0,0,afternoon,Egypt
563c6a75cd107fbf88a8eb06,Hawsh El Pacha - Royal Cemetery (حوش الباشا - مدافن العائلة المالكة),Cairo,30.01185417,31.25688553,"Al Imam Al Shafei, الخليفة, القاهرة","['Historic and Protected Site', 'Cemetery']",-2,,Historical & Cultural Site,['Cultural & Historical'],80,10.0,40.0,,['Cultural & Historical'],standalone,0,1,0,0,0,0,0,0,0,0,morning,Egypt
653d2d7e462cff39c82fc61d,Prince Naguib Palace,Cairo,29.991753,31.224359,"الجيزة, محافظة الجيزة, 12524","['Palace', 'Historic and Protected Site', 'Outdoor Event Space']",-2,,Historical & Cultural Site,['Cultural & Historical'],70,60.0,220.0,,['Cultural & Historical'],standalone,0,1,0,0,0,0,0,0,0,0,morning,Egypt
4ee8fb0a93ad8b68ea16a869,Muqattam Corniche (كورنيش المقطم),Cairo,30.01397256,31.27771625,"Muqattam, مدينة المقطم, القاهرة","['Mountain', 'Scenic Lookout']",-2,,Natural Attraction,['Nature & Adventure'],60,0.0,0.0,,['Nature & Adventure'],standalone,0,0,0,0,1,0,0,0,0,0,afternoon,Egypt
4c421543a48d9c7418c70c40,Maadi City Center (معادي سيتي سنتر),Cairo,29.98222286,31.31631374,"Kattameya Ring Road (El Mirage City), Maadi, القاهرة, 11435",['Shopping Mall'],-2,parent,Shopping & Commercial,"['Shopping', 'Entertainment & Activities']",50,0.0,0.0,,"['Entertainment & Activities', 'Shopping']",parent,0,0,1,0,0,0,0,1,0,0,night,Egypt
5d210a0138c7d60024f5a8f3,Zed Park,Cairo,30.043554,30.99571,"Zed Sheikh Zayed (5'th District), El-Sheikh Zayed City, Giza Governorate",['Park'],-2,,Natural Attraction,"['Nature & Adventure', 'Entertainment & Activities', 'Nightlife & Festive']",70,250.0,250.0,https://tickets.zed-park.com/Online/Tickets,"['Entertainment & Activities', 'Nature & Adventure', 'Nightlife & Festive']",standalone,0,0,1,0,1,1,0,0,0,0,afternoon,Egypt
50240bffe4b02078c63803f1,Ahmed Shawky Museum (متحف احمد شوقي),Cairo,30.0214811,31.21749792,"6 Ahmed Shawky St, الجيزة, محافظة الجيزة",['Museum'],-2,,Historical & Cultural Site,['Cultural & Historical'],80,20.0,60.0,https://sis.gov.eg/en/egypt/tourism/cultural-tourism/museums/ahmed-shawki-museum-karmat-ibn-hani/,['Cultural & Historical'],standalone,0,1,0,0,0,0,0,0,0,0,morning,Egypt
683438b59fc3c22e48c7eb11,Mohamed Mahmoud Khalil Museum,Cairo,30.033512,31.217075,"الجيزة, محافظة الجيزة, 12612",['Art Museum'],-2,,Historical & Cultural Site,['Cultural & Historical'],80,20.0,60.0,https://sis.gov.eg/en/egypt/tourism/cultural-tourism/museums/mohmed-mahmoud-khalil-museum/,['Cultural & Historical'],standalone,0,1,0,0,0,0,0,0,0,0,morning,Egypt
509e7064e4b0ca91fafbf2e5,The Agricultural Museum (المتحف الزراعي),Cairo,30.0459461,31.21078336,"El Batal Ahmed Abd El Aziz St (Dokki St), الدقى, محافظة الجيزة","['Science Museum', 'History Museum']",-2,,Historical & Cultural Site,['Cultural & Historical'],60,20.0,60.0,,['Cultural & Historical'],standalone,0,1,0,0,0,0,0,0,0,0,morning,Egypt
4db6a06b93a017099e035c60,Al Orman Gardens (حدائق الأورمان),Cairo,30.03059689,31.21565859,"Giza Sq, الجيزة, محافظة الجيزة","['Park', 'Botanical Garden']",-2,,Natural Attraction,['Nature & Adventure'],70,20.0,20.0,,['Nature & Adventure'],standalone,0,0,0,0,1,0,0,0,0,0,afternoon,Egypt
51b8b752498e392a12cd5bbe,ESC Skate Park,Cairo,30.043721,31.203054,Egyptian Shooting Club,['Skate Park'],-2,,Entertainment & Activities,"['Entertainment & Activities', 'Sports & Physical Activities']",80,140.0,140.0,https://waffarha.com/en/Up-to-36-off-o-7303,"['Entertainment & Activities', 'Sports & Physical Activities']",standalone,0,0,1,0,0,0,0,0,1,0,afternoon,Egypt
4c610b921e5cd13a0424a3ed,Giza Zoo (حديقة الحيوان),Cairo,30.02284612,31.21514424,"Charles De Gaulle St, الجيزة, محافظة الجيزة",['Zoo'],-2,,Natural Attraction,"['Nature & Adventure', 'Entertainment & Activities']",70,20.0,20.0,,"['Entertainment & Activities', 'Nature & Adventure']",standalone,0,0,1,0,1,0,0,0,0,0,afternoon,Egypt
4f13139ee4b09e81da5b1cd0,Mohamed Ali Palace (قصر محمد على),Cairo,30.02857303,31.22978554,"Al Manyal Museum (Al-saraya), Al Manyal, القاهرة, 11451","['Museum', 'Palace', 'Historic and Protected Site']",-2,,Historical & Cultural Site,['Cultural & Historical'],80,60.0,220.0,https://egymonuments.com/details/PrinceMohamedAliPalace,['Cultural & Historical'],standalone,0,1,0,0,0,0,0,0,0,0,morning,Egypt
4f1aaf71e4b05c50e1c62ee1,Gayer Anderson Museum (متحف جاير اندرسون),Cairo,30.02864515,31.25093748,"Ahmed Ibn Tolon Sq., Al Sayedah Zainab, القاهرة",['Art Museum'],-2,,Historical & Cultural Site,['Cultural & Historical'],80,10.0,100.0,https://egymonuments.com/details/Gayer,['Cultural & Historical'],standalone,0,1,0,0,0,0,0,0,0,0,morning,Egypt
4b653727f964a5203ee92ae3,The Egyptian Museum (المتحف المصري),Cairo,30.04696613,31.2337097,"Tahrir Square, Meret Basha, القاهرة, القاهرة, 11516",['History Museum'],-2,,Historical & Cultural Site,['Cultural & Historical'],90,30.0,550.0,https://egymonuments.com/details/EgyptianMuseum,['Cultural & Historical'],standalone,0,1,0,0,0,0,0,0,0,0,morning,Egypt
4d41197000e8a35d0d3e01fb,Museum of Islamic Art (متحف الفن الاسلامي),Cairo,30.04401737,31.25261318,"Port Said St., Al Azhar, القاهرة","['Art Museum', 'History Museum']",-2,,Historical & Cultural Site,['Cultural & Historical'],80,20.0,340.0,https://egymonuments.com/locations/details/IslamicMuseum,['Cultural & Historical'],standalone,0,1,0,0,0,0,0,0,0,0,morning,Egypt
4f5715d9e4b0c3b3a7cbf6df,Pathology Museum (متحف علم الأمراض),Cairo,30.03007499,31.22816441,Kasr Al-Ainy,['Science Museum'],-2,,Historical & Cultural Site,['Cultural & Historical'],60,20.0,60.0,,['Cultural & Historical'],standalone,0,1,0,0,0,0,0,0,0,0,morning,Egypt
4f719dbee4b0559c3926b737,Mahmoud Moukhtar Museum (متحف محمود مختار),Cairo,30.04065938,31.22316112,"Al Tahrir St., Al Gezira, القاهرة","['Art Museum', 'Concert Hall']",-2,,Historical & Cultural Site,['Cultural & Historical'],80,20.0,60.0,https://sis.gov.eg/en/egypt/tourism/cultural-tourism/museums/mahmoud-mokhtar-museum/,['Cultural & Historical'],standalone,0,1,0,0,0,0,0,0,0,0,morning,Egypt
637f7048a721574146d5400c,Engy Aflaton Museum,Cairo,30.043485,31.224739,"القاهرة, القاهرة, 11568",['Art Museum'],-2,,Historical & Cultural Site,['Cultural & Historical'],60,20.0,60.0,,['Cultural & Historical'],standalone,0,1,0,0,0,0,0,0,0,0,morning,Egypt
4f281509e4b0fa5ce59779a0,Museum of Egyptian Modern Art (متحف الفن المصري الحديث),Cairo,30.04354772,31.22467339,"Mahmoud Mokhtar St (El Gezira), زمالك, القاهرة",['Art Museum'],-2,,Historical & Cultural Site,['Cultural & Historical'],80,20.0,60.0,,['Cultural & Historical'],standalone,0,1,0,0,0,0,0,0,0,0,morning,Egypt
500307dce4b0645fed9a5625,Beit El Umma (بيت الأمة),Cairo,30.0363869,31.24073982,"2 Saad Zagloul St, المنيرة, القاهرة",['History Museum'],-2,,Historical & Cultural Site,['Cultural & Historical'],70,20.0,100.0,,['Cultural & Historical'],standalone,0,1,0,0,0,0,0,0,0,0,morning,Egypt
4f1aa26be4b0288a022f205b,Museo Mevlevi (التكية المولوية),Cairo,30.03499225,31.25590505,"El Suffiyah St, Al Khalīfah, القاهرة",['History Museum'],-2,,Historical & Cultural Site,"['Cultural & Historical', 'Religious']",80,10.0,100.0,https://egymonuments.gov.eg/en/monuments/the-takeyya-mawlawiyya/,"['Cultural & Historical', 'Religious']",standalone,0,1,0,0,0,0,1,0,0,0,morning,Egypt
5bb1e83281104500396d3c03,‏Museum of Islamic Ceramics (متحف الخزف الإسلامي),Cairo,30.056515,31.22311,"1 El Sheikh El Marsafi St, زمالك, القاهرة",['Art Museum'],-2,,Historical & Cultural Site,['Cultural & Historical'],70,20.0,60.0,,['Cultural & Historical'],standalone,0,1,0,0,0,0,0,0,0,0,morning,Egypt
63fa09535f88b2006eace083,Egyptian Architecture House,Cairo,30.03247,31.258381,"5 Darb Al Labana, القاهرة, القاهرة, 11636",['Museum'],-2,,Historical & Cultural Site,['Cultural & Historical'],55,20.0,60.0,,['Cultural & Historical'],standalone,0,1,0,0,0,0,0,0,0,0,morning,Egypt
4fd183f4e4b06145df49b83f,Al Horreya Park (حديقة الحرية),Cairo,30.04190987,31.22596746,"Montazah El Gezira, زمالك, القاهرة",['Park'],-2,,Natural Attraction,['Nature & Adventure'],50,20.0,20.0,,['Nature & Adventure'],standalone,0,0,0,0,1,0,0,0,0,0,afternoon,Egypt
4e121260d4c07597ff864970,Aquarium Grotto Garden (حديقة الأسماك),Cairo,30.05669481,31.21800667,"El Gabalaya St, زمالك, القاهرة","['Aquarium', 'Park']",-2,,Natural Attraction,['Nature & Adventure'],60,20.0,20.0,,['Nature & Adventure'],standalone,0,0,0,0,1,0,0,0,0,0,afternoon,Egypt
534586ec498e03668d34cfae,El Manial Park (حديقه المنيل),Cairo,30.02849176,31.23028994,"روضة جزيره, القاهرة",['Park'],-2,,Natural Attraction,['Nature & Adventure'],55,20.0,20.0,,['Nature & Adventure'],standalone,0,0,0,0,1,0,0,0,0,0,afternoon,Egypt
524da8cb11d2310b6b2e88bd,Al Andalus Park (حديقة الأندلس),Cairo,30.04448498,31.22797434,"Mohammed Abdelwahab St., زمالك, القاهرة",['Park'],-2,,Natural Attraction,['Nature & Adventure'],50,20.0,20.0,,['Nature & Adventure'],standalone,0,0,0,0,1,0,0,0,0,0,afternoon,Egypt
50a23e8ee4b06999bff912d2,Al Azbakiya Park (حديقة الأزبكية),Cairo,30.05215645,31.24708366,"Opera Sq (El Gomhuria St), Al Azbakīyah, Muḩāfaz̧at al Qāhirah, القاهرة",['Park'],-2,,Natural Attraction,['Nature & Adventure'],50,20.0,20.0,,['Nature & Adventure'],standalone,0,0,0,0,1,0,0,0,0,0,afternoon,Egypt
4cee65cb3b03f04deec239dc,The Saladin Citadel of Cairo (قلعة صلاح الدين),Cairo,30.02936025,31.26173079,"Salah Salem Rd, Qesm Al Khalifah, القاهرة","['Historic and Protected Site', 'Scenic Lookout', 'History Museum']",-2,parent,Historical & Cultural Site,['Cultural & Historical'],90,60.0,550.0,https://egymonuments.com/details/SalahEldinCitadel,['Cultural & Historical'],parent,0,1,0,0,0,0,0,0,0,0,morning,Egypt
50574ce8e4b0e5434e19f249,Beit El Sennary (بيت السنارى),Cairo,30.03294058,31.24267879,"El Mong Alley (behind El Saneya School), Al Sayeda Zainab Sq., القاهرة","['Historic and Protected Site', 'Art Gallery', 'Performing Arts Venue']",-2,,Historical & Cultural Site,['Cultural & Historical'],75,10.0,100.0,,['Cultural & Historical'],standalone,0,1,0,0,0,0,0,0,0,0,morning,Egypt
5090fa23e4b0c36e95f6e915,Al Ghuria (الغورية),Cairo,30.04665587,31.25987306,"القاهرة الإسلامية, القاهرة","['Flea Market', 'Historic and Protected Site']",-2,parent,Historical & Cultural Site,['Cultural & Historical'],70,20.0,300.0,https://egymonuments.com/details/WikalaOfAl-Guri,['Cultural & Historical'],parent,0,1,0,0,0,0,0,0,0,0,morning,Egypt
4fe71b72e4b0345843c3275b,Al Sayeda Zainab mosque,Cairo,30.03199094,31.23849455,,['Historic and Protected Site'],-2,,Religious Site,['Religious'],80,0.0,0.0,,['Religious'],standalone,0,0,0,0,0,0,1,0,0,0,afternoon,Egypt
513f8ccce4b091d090e3ef8e,Al-Hussain (الحسين),Cairo,30.04725158,31.26257234,"القاهرة الإسلامية, القاهرة",['Flea Market'],-2,parent,Religious Site,"['Cultural & Historical', 'Religious']",80,20.0,220.0,,"['Cultural & Historical', 'Religious']",parent,0,1,0,0,0,0,1,0,0,0,afternoon,Egypt
52906d81498eb14ab2938b64,Historical Religious Complex (مجمع الاديان),Cairo,30.006922,31.231088,"Kom Ghorab, مصر القديمة, القاهرة",['Historic and Protected Site'],-2,parent,Historical & Cultural Site,"['Cultural & Historical', 'Religious']",95,0.0,0.0,,"['Cultural & Historical', 'Religious']",parent,0,1,0,0,0,0,1,0,0,0,morning,Egypt
4f1aa56fe4b0889e046bfe67,Prince Taz Palace (قصر الأمير طاز),Cairo,30.03209785,31.25330701,"El Suyufiyya St, Al Khalīfah, القاهرة",['Historic and Protected Site'],-2,,Historical & Cultural Site,['Cultural & Historical'],70,60.0,220.0,https://egymonuments.gov.eg/en/monuments/prince-taz-palace/,['Cultural & Historical'],standalone,0,1,0,0,0,0,0,0,0,0,morning,Egypt
4f169cc8e4b0044a28561a2a,Abdeen Palace (قصر عابدين),Cairo,30.04272114,31.24726295,"El Gomhoreya Sq., عابدين, القاهرة","['Historic and Protected Site', 'Museum']",-2,,Historical & Cultural Site,['Cultural & Historical'],75,60.0,220.0,,['Cultural & Historical'],standalone,0,1,0,0,0,0,0,0,0,0,morning,Egypt
4f1949a2e4b025b060d2c185,Sultan Hassan Mosque (مسجد السلطان حسن),Cairo,30.03234023,31.25629068,"Salah Al Dine Sq., Al Qalaa, القاهرة","['Mosque', 'Historic and Protected Site']",-2,,Religious Site,"['Cultural & Historical', 'Religious']",90,0.0,220.0,https://egymonuments.com/details/Mosque-MadrassaSultanHassan,"['Cultural & Historical', 'Religious']",standalone,0,1,0,0,0,0,1,0,0,0,afternoon,Egypt
5465c1c8498e343fe4ec83e4,Al Sayeda Sakina Mosque (مسجد السيدة سكينة),Cairo,30.02666502,31.25203193,"El Sultan El Ashraf St, السيدة نفيسة, القاهرة","['Historic and Protected Site', 'Mosque']",-2,,Religious Site,"['Cultural & Historical', 'Religious']",80,0.0,0.0,,"['Cultural & Historical', 'Religious']",standalone,0,1,0,0,0,0,1,0,0,0,afternoon,Egypt
533e90ce11d2513a69240749,Sabil Umm Abbas (سبيل أم عباس),Cairo,30.030916,31.252213,"El Saliba (El Darb El Ahmar), Cairo, Cairo Governorate",['Historic and Protected Site'],-2,,Historical & Cultural Site,"['Cultural & Historical', 'Religious']",70,0.0,0.0,https://egymonuments.gov.eg/en/monuments/sabil-umm-abbas-1,"['Cultural & Historical', 'Religious']",standalone,0,1,0,0,0,0,1,0,0,0,morning,Egypt
54830409498ee851711f3383,Shagarat Al Durr Dome (قبة شجرة الدر),Cairo,30.03058243,31.25309942,"El Saliba St (El Syufiya St), Al Khalīfah, القاهرة",['Historic and Protected Site'],-2,,Historical & Cultural Site,"['Cultural & Historical', 'Religious']",75,0.0,0.0,,"['Cultural & Historical', 'Religious']",standalone,0,1,0,0,0,0,1,0,0,0,morning,Egypt
5422b4a8498ebb6f90d07a12,Bab Qaisoon (باب قيصون),Cairo,30.03761292,31.2555294,"Al Qal‘ah, القاهرة",['Historic and Protected Site'],-2,,Historical & Cultural Site,['Cultural & Historical'],65,10.0,100.0,,['Cultural & Historical'],standalone,0,1,0,0,0,0,0,0,0,0,morning,Egypt
4c3c3e06a9509c74150c395b,Cairo Tower (برج القاهرة),Cairo,30.04631766,31.22428982,"El Zohriya Garden St (El Gezira), زمالك, القاهرة","['Monument', 'Scenic Lookout']",-2,,Landmark & City Attraction,"['Entertainment & Activities', 'Cultural & Historical', 'Nightlife & Festive']",80,100.0,350.0,https://sis.gov.eg/ar/%D9%85%D8%B5%D8%B1/%D8%A7%D9%84%D8%B3%D9%8A%D8%A7%D8%AD%D8%A9/%D9%85%D8%B9%D8%A7%D9%84%D9%85-%D8%B3%D9%8A%D8%A7%D8%AD%D9%8A%D8%A9/%D8%A8%D8%B1%D8%AC-%D8%A7%D9%84%D9%82%D8%A7%D9%87%D8%B1%D8%A9/,"['Cultural & Historical', 'Entertainment & Activities', 'Nightlife & Festive']",standalone,0,1,1,0,0,1,0,0,0,0,afternoon,Egypt
5281e81a11d27e70be9c3954,Aisha Fahmy Palace (قصر عائشة فهمي - متحف روائع الفن الحديث),Cairo,30.05940319,31.22465374,"1 Aziz Abaza St (15th Of May Bridge), زمالك, القاهرة","['Palace', 'Museum']",-2,,Historical & Cultural Site,['Cultural & Historical'],70,0.0,0.0,,['Cultural & Historical'],standalone,0,1,0,0,0,0,0,0,0,0,morning,Egypt
514ed6f6e4b01417eb090455,Royal Vehicles Museum (متحف المركبات الملكية),Cairo,30.02862008,31.26483008,"Salah Salem St, Al Abājīyah, القاهرة",['History Museum'],-2,,Historical & Cultural Site,['Cultural & Historical'],75,30.0,300.0,https://egymonuments.com/details/RoyalChariotsMuseum,['Cultural & Historical'],standalone,0,1,0,0,0,0,0,0,0,0,morning,Egypt
50698119e4b087b1889692e8,Sakakini Palace (قصر السكاكينى),Cairo,30.06538767,31.2664563,"El Sakakini Sq., Al Zaher, القاهرة, 11271","['History Museum', 'Historic and Protected Site']",-2,,Historical & Cultural Site,['Cultural & Historical'],70,60.0,220.0,,['Cultural & Historical'],standalone,0,1,0,0,0,0,0,0,0,0,morning,Egypt
687f4dc7fae1591eaad7c77d,Egyptian National Library Museum,Cairo,30.044203,31.252292,"القاهرة, القاهرة",['Art Museum'],-2,,Historical & Cultural Site,['Cultural & Historical'],80,10.0,100.0,https://www.darelkotob.gov.eg/en-us/Pages/Home.aspx,['Cultural & Historical'],standalone,0,1,0,0,0,0,0,0,0,0,morning,Egypt
55915086498eb105dff359b2,Sunqur Al Furqani Mosque (جامع سنقر الفرقاني),Cairo,30.04493995,31.25451342,"درب سعادة, القاهرة, القاهرة",['Museum'],-2,,Religious Site,"['Cultural & Historical', 'Religious']",85,10.0,100.0,,"['Cultural & Historical', 'Religious']",standalone,0,1,0,0,0,0,1,0,0,0,afternoon,Egypt
543bb6e6498e11e377848188,The Postal Museum (متحف البريد),Cairo,30.0501194,31.24838829,"Attaba Sq, المسكي, القاهرة",['History Museum'],-2,,Historical & Cultural Site,['Cultural & Historical'],60,10.0,100.0,https://sis.gov.eg/ar/%D9%85%D8%B5%D8%B1/%D8%A7%D9%84%D8%B3%D9%8A%D8%A7%D8%AD%D8%A9/%D8%A7%D9%84%D8%AB%D9%82%D8%A7%D9%81%D9%8A%D8%A9/%D9%85%D8%AA%D8%A7%D8%AD%D9%81/%D9%85%D8%AA%D8%AD%D9%81-%D8%A7%D9%84%D8%A8%D8%B1%D9%8A%D8%AF-%D8%A7%D9%84%D9%85%D8%B5%D8%B1%D9%89/,['Cultural & Historical'],standalone,0,1,0,0,0,0,0,0,0,0,morning,Egypt
4cc2c6f97ed8ef3bab7112a0,El Moez St (شارع المعز لدين الله),Cairo,30.05048209,31.26185142,"Al-Mu'izz ledin Illah St, الجمالية, القاهرة","['Historic and Protected Site', 'Flea Market']",-2,parent,Landmark & City Attraction,"['Cultural & Historical', 'Entertainment & Activities']",85,20.0,220.0,https://egymonuments.gov.eg/en/archaeological-sites/al-muizz-street,"['Cultural & Historical', 'Entertainment & Activities']",parent,0,1,1,0,0,0,0,0,0,0,afternoon,Egypt
4ebab6f2b8f7b4886a12b2b2,St.Simeon the Tanner Monastery (كنيسة و دير القديس سمعان الخراز),Cairo,30.03114867,31.27666276,"Garbage City (Below the Cliffs of Manshiet Nasser), Manshīyat Nāşir, القاهرة","['Church', 'Historic and Protected Site', 'Monastery']",-2,,Religious Site,"['Religious', 'Cultural & Historical']",80,10.0,100.0,https://egymonuments.com/ar/locations/details/SamaanMonastery,"['Cultural & Historical', 'Religious']",standalone,0,1,0,0,0,0,1,0,0,0,afternoon,Egypt
4fba14a8e4b06ef132b94f4b,City of the Dead (جبانة المماليك),Cairo,30.04364988,31.27271175,"El Nasr Rd (Salah Salem Rd), Manshīyat Nāşir, القاهرة","['Historic and Protected Site', 'Cemetery']",-2,parent,Historical & Cultural Site,['Cultural & Historical'],70,10.0,100.0,,['Cultural & Historical'],parent,0,1,0,0,0,0,0,0,0,0,morning,Egypt
505c4575e4b06ee0cb5408ae,Al Zaher Baibars Al Bunduqdari Mosque (جامع الظاهر بيبرس البندقداري),Cairo,30.06106324,31.26439419,,"['Mosque', 'Historic and Protected Site']",-2,,Religious Site,"['Religious', 'Cultural & Historical']",85,10.0,100.0,https://egymonuments.gov.eg/en/monuments/mosque-of-al-zahir-baybars/,"['Cultural & Historical', 'Religious']",standalone,0,1,0,0,0,0,1,0,0,0,afternoon,Egypt
5656e5c9498e6746494f8bcb,Aq Sunqur Blue Mosque (مسجد آق سنقر - الجامع الأزرق),Cairo,30.03634046,31.26016438,"Bab El Wazir St, Ad Darb al Aḩmar, القاهرة",['Historic and Protected Site'],-2,,Religious Site,"['Religious', 'Cultural & Historical']",85,10.0,100.0,,"['Cultural & Historical', 'Religious']",standalone,0,1,0,0,0,0,1,0,0,0,afternoon,Egypt
5656e2fe498e51f6dbe3f3bb,Beit Al Razaz (بيت الرزاز),Cairo,30.03692287,31.26020838,Bab El Wazir (El Darb El Ahmar),['Historic and Protected Site'],-2,,Historical & Cultural Site,['Cultural & Historical'],65,10.0,100.0,,['Cultural & Historical'],standalone,0,1,0,0,0,0,0,0,0,0,morning,Egypt
50a9e318e4b025015ce27b3b,Um El Sultan Mosque (جامع و مدرسة ام السلطان شعبان),Cairo,30.03748613,31.2594595,,['Historic and Protected Site'],-2,,Religious Site,"['Religious', 'Cultural & Historical']",80,10.0,100.0,,"['Cultural & Historical', 'Religious']",standalone,0,1,0,0,0,0,1,0,0,0,afternoon,Egypt
63f9c06645ffe27416bb22c8,Al Khalifa Environmental and Heritage Park,Cairo,30.024286,31.251765,"Al Abageyah, El Khalifa, القاهرة, القاهرة, 11797",['Park'],-2,,Natural Attraction,"['Nature & Adventure', 'Cultural & Historical']",80,50.0,50.0,,"['Cultural & Historical', 'Nature & Adventure']",standalone,0,1,0,0,1,0,0,0,0,0,afternoon,Egypt
4ec7b6c202d5888e9c1894d8,The International Park (الحديقة الدولية),Cairo,30.04977935,31.33596897,"Abbas El Akkad St, Nasr City, القاهرة","['Park', 'Garden Center']",-2,,Natural Attraction,['Nature & Adventure'],70,50.0,50.0,,['Nature & Adventure'],standalone,0,0,0,0,1,0,0,0,0,0,afternoon,Egypt
5268f5d2498ee025c2cb6794,Cairo Festival City Mall,Cairo,30.028296,31.40805,"Ring Rd. (90th Axis), New Cairo, القاهرة, 171-11835",['Shopping Mall'],-2,parent,Shopping & Commercial,"['Nightlife & Festive', 'Entertainment & Activities', 'Shopping']",80,0.0,0.0,,"['Entertainment & Activities', 'Nightlife & Festive', 'Shopping']",parent,0,0,1,0,0,1,0,1,0,0,night,Egypt
60e2491d7e2761122a76d1d2,Museum Of illusions,Cairo,30.07743,30.951277,"Walk of Cairo - Cairo Alex Desert Rd (Next to Sodic West Gate), El Sheikh Zayed City, Giza Governorate",['Art Museum'],-2,,Entertainment & Activities,['Entertainment & Activities'],90,375.0,375.0,https://museumofillusionscairo.com/,['Entertainment & Activities'],standalone,0,0,1,0,0,0,0,0,0,0,afternoon,Egypt
6339d496d5876b656b2b8339,The Art’s Hub,Cairo,30.060399,31.220467,"القاهرة, القاهرة, 11568","['Art Gallery', 'Art Museum', 'Public Art']",-2,,Entertainment & Activities,"['Entertainment & Activities', 'Cultural & Historical']",80,0.0,0.0,https://the-arts-hub.com/,"['Cultural & Historical', 'Entertainment & Activities']",standalone,0,1,1,0,0,0,0,0,0,0,afternoon,Egypt
63385798c265ec60b1d0fdf9,Ubuntu Gallery,Cairo,30.059076,31.221207,"القاهرة, القاهرة, 11568","['Art Gallery', 'Public Art', 'Art Museum']",-2,,Entertainment & Activities,"['Entertainment & Activities', 'Cultural & Historical']",80,0.0,0.0,https://ubuntuartgallery.com/,"['Cultural & Historical', 'Entertainment & Activities']",standalone,0,1,1,0,0,0,0,0,0,0,afternoon,Egypt
4dc530dcfa76d685cdd93f94,The Nile River (نهر النيل),Cairo,30.04599027,31.22996807,"Zamalek, القاهرة, القاهرة",['River'],-2,,Natural Attraction,['Nature & Adventure'],90,0.0,0.0,,['Nature & Adventure'],standalone,0,0,0,0,1,0,0,0,0,0,afternoon,Egypt
4f6826d9e4b04b7d98784ade,Corniche Garden City (كورنيش جاردن سيتي),Cairo,30.03170966,31.23037809,"Garden City, قصر الدبر, القاهرة",['Canal'],-2,,Natural Attraction,['Nature & Adventure'],80,0.0,0.0,,['Nature & Adventure'],standalone,0,0,0,0,1,0,0,0,0,0,afternoon,Egypt
5571a27b498ee58e02a51f4a,Al Tunbugha Al Maridani Mosque (جامع الطنبغا الماردانى),Cairo,30.03984571,31.259408,"El Tabana St (Bab Al Wazir St), Ad Darb al Aḩmar, القاهرة","['Historic and Protected Site', 'Mosque']",-2,,Religious Site,"['Religious', 'Cultural & Historical']",80,10.0,100.0,,"['Cultural & Historical', 'Religious']",standalone,0,1,0,0,0,0,1,0,0,0,afternoon,Egypt
610e55ff18f69e4acfcbf07f,Mamsha Ahl Misr (ممشي أهل مصر),Cairo,30.062468,31.227015,"Nile Corniche, Boulaq, Cairo Governorate",['Pedestrian Plaza'],-2,,Natural Attraction,['Nature & Adventure'],80,20.0,100.0,,['Nature & Adventure'],standalone,0,0,0,0,1,0,0,0,0,0,afternoon,Egypt
